,lat,lon,name,ref:gbfs,capacity,amenity,brand,brand:ja,brand:wikidata,website,authentication:app,fee,lat_label,lon_label
0,38.269793,140.874203,04.ドコモ東北ビル,docomo-cycle:00000001,18,bicycle_rental,Docomo Bike Share,ドコモ・バイクシェア,Q55533296,https://docomo-cycle.jp/,yes,yes,2,2
1,38.267867,140.871866,03.宮城県庁,docomo-cycle:00000002,11,bicycle_rental,Docomo Bike Share,ドコモ・バイクシェア,Q55533296,https://docomo-cycle.jp/,yes,yes,2,2
2,38.268439,140.869813,02.仙台市役所,docomo-cycle:00000003,10,bicycle_rental,Docomo Bike Share,ドコモ・バイクシェア,Q55533296,https://docomo-cycle.jp/,yes,yes,2,2
3,38.261325,140.867192,06.宮城ﾄﾖﾀ自動車MTG仙台広瀬通,docomo-cycle:00000004,7,bicycle_rental,Docomo Bike Share,ドコモ・バイクシェア,Q55533296,https://docomo-cycle.jp/,yes,yes,2,2
4,38.26298,140.88101,08.AER前,docomo-cycle:00000005,14,bicycle_rental,Docomo Bike Share,ドコモ・バイクシェア,Q55533296,https://docomo-cycle.jp/,yes,yes,2,2
5,38.264085,140.868473,05.元鍛冶丁公園,docomo-cycle:00000006,11,bicycle_rental,Docomo Bike Share,ドコモ・バイクシェア,Q55533296,https://docomo-cycle.jp/,yes,yes,2,2
6,38.261369,140.875215,07.ハヤサカサイクル仙台中央店,docomo-cycle:00000007,4,bicycle_rental,Docomo Bike Share,ドコモ・バイクシェア,Q55533296,https://docomo-cycle.jp/,yes,yes,2,2
7,38.25678,140.876098,09.仙台トラストシティ,docomo-cycle:00000008,9,bicycle_rental,Docomo Bike Share,ドコモ・バイクシェア,Q55533296,https://docomo-cycle.jp/,yes,yes,2,2
8,38.269874,140.862164,61.ローソン仙台木町通一丁目店,docomo-cycle:00000009,1,bicycle_rental,Docomo Bike Share,ドコモ・バイクシェア,Q55533296,https://docomo-cycle.jp/,yes,yes,2,2
9,38.257715,140.879456,11.ホテルセントラル仙台,docomo-cycle:00000010,8,bicycle_rental,Docomo Bike Share,ドコモ・バイクシェア,Q55533296,https://docomo-cycle.jp/,yes,yes,2,2
10,38.25561,140.881591,12.JR仙台病院前,docomo-cycle:00000011,22,bicycle_rental,Docomo Bike Share,ドコモ・バイクシェア,Q55533296,https://docomo-cycle.jp/,yes,yes,2,2
11,38.253993,140.885997,62.栽松院,docomo-cycle:00000013,11,bicycle_rental,Docomo Bike Share,ドコモ・バイクシェア,Q55533296,https://docomo-cycle.jp/,yes,yes,2,2
12,38.267755,140.870106,13.市役所噴水前,docomo-cycle:00000014,16,bicycle_rental,Docomo Bike Share,ドコモ・バイクシェア,Q55533296,https://docomo-cycle.jp/,yes,yes,2,2
13,38.25723,140.903736,15.弘進ゴム アスリートパーク仙台,docomo-cycle:00000015,57,bicycle_rental,Docomo Bike Share,ドコモ・バイクシェア,Q55533296,https://docomo-cycle.jp/,yes,yes,2,2
14,38.260331,140.884464,16.仙台駅東口,docomo-cycle:00000016,19,bicycle_rental,Docomo Bike Share,ドコモ・バイクシェア,Q55533296,https://docomo-cycle.jp/,yes,yes,2,2
15,38.25402,140.88178,23.NTT五橋ビル,docomo-cycle:00000017,6,bicycle_rental,Docomo Bike Share,ドコモ・バイクシェア,Q55533296,https://docomo-cycle.jp/,yes,yes,2,2
16,38.282938,140.868749,17.北仙台駅,docomo-cycle:00000018,8,bicycle_rental,Docomo Bike Share,ドコモ・バイクシェア,Q55533296,https://docomo-cycle.jp/,yes,yes,2,2
17,38.27786,140.867709,18.仙台合同庁舎,docomo-cycle:00000019,7,bicycle_rental,Docomo Bike Share,ドコモ・バイクシェア,Q55533296,https://docomo-cycle.jp/,yes,yes,2,2
18,38.2668,140.87552,19.錦町公園,docomo-cycle:00000020,12,bicycle_rental,Docomo Bike Share,ドコモ・バイクシェア,Q55533296,https://docomo-cycle.jp/,yes,yes,2,2
19,38.264941,140.863193,20.トークネットホール仙台,docomo-cycle:00000021,5,bicycle_rental,Docomo Bike Share,ドコモ・バイクシェア,Q55533296,https://docomo-cycle.jp/,yes,yes,2,2
20,38.262729,140.876115,21.ガスサロン,docomo-cycle:00000022,3,bicycle_rental,Docomo Bike Share,ドコモ・バイクシェア,Q55533296,https://docomo-cycle.jp/,yes,yes,2,2
21,38.257556,140.870385,22.NTT青葉通ビル,docomo-cycle:00000023,6,bicycle_rental,Docomo Bike Share,ドコモ・バイクシェア,Q55533296,https://docomo-cycle.jp/,yes,yes,2,2
22,38.250233,140.880446,24.仙台福祉プラザ,docomo-cycle:00000024,8,bicycle_rental,Docomo Bike Share,ドコモ・バイクシェア,Q55533296,https://docomo-cycle.jp/,yes,yes,2,2
23,38.252584,140.866625,25.瑞鳳殿,docomo-cycle:00000025,5,bicycle_rental,Docomo Bike Share,ドコモ・バイクシェア,Q55533296,https://docomo-cycle.jp/,yes,yes,2,2
24,38.262756,140.854986,26.宮城県美術館,docomo-cycle:00000026,5,bicycle_rental,Docomo Bike Share,ドコモ・バイクシェア,Q55533296,https://docomo-cycle.jp/,yes,yes,2,2
25,38.257511,140.857873,27.博物館・国際センター前,docomo-cycle:00000027,5,bicycle_rental,Docomo Bike Share,ドコモ・バイクシェア,Q55533296,https://docomo-cycle.jp/,yes,yes,2,2
26,38.261241,140.873656,63.一番町平和ビル,docomo-cycle:00000028,16,bicycle_rental,Docomo Bike Share,ドコモ・バイクシェア,Q55533296,https://docomo-cycle.jp/,yes,yes,2,2
27,38.265352,140.885672,29.ホテルパレス仙台,docomo-cycle:00000029,5,bicycle_rental,Docomo Bike Share,ドコモ・バイクシェア,Q55533296,https://docomo-cycle.jp/,yes,yes,2,2
28,38.269382,140.862348,30.仙台市交通局,docomo-cycle:00000030,5,bicycle_rental,Docomo Bike Share,ドコモ・バイクシェア,Q55533296,https://docomo-cycle.jp/,yes,yes,2,2
29,38.268109,140.862361,72.宮城県建設産業会館前,docomo-cycle:00000031,7,bicycle_rental,Docomo Bike Share,ドコモ・バイクシェア,Q55533296,https://docomo-cycle.jp/,yes,yes,2,2
30,38.258622,140.893843,32.仙台サンプラザ,docomo-cycle:00000032,7,bicycle_rental,Docomo Bike Share,ドコモ・バイクシェア,Q55533296,https://docomo-cycle.jp/,yes,yes,2,2
31,38.250861,140.881081,50.地下鉄 五橋駅,docomo-cycle:00000033,3,bicycle_rental,Docomo Bike Share,ドコモ・バイクシェア,Q55533296,https://docomo-cycle.jp/,yes,yes,2,2
32,38.26024,140.856183,51.地下鉄 国際センター駅,docomo-cycle:00000034,9,bicycle_rental,Docomo Bike Share,ドコモ・バイクシェア,Q55533296,https://docomo-cycle.jp/,yes,yes,2,2
33,38.261738,140.886866,52.アゼリアヒルズ,docomo-cycle:00000035,3,bicycle_rental,Docomo Bike Share,ドコモ・バイクシェア,Q55533296,https://docomo-cycle.jp/,yes,yes,2,2
34,38.268989,140.867592,54.ローソン仙台二日町中央店,docomo-cycle:00000037,2,bicycle_rental,Docomo Bike Share,ドコモ・バイクシェア,Q55533296,https://docomo-cycle.jp/,yes,yes,2,2
35,38.270506,140.865349,55.ローソン仙台二日町晩翠通店,docomo-cycle:00000038,1,bicycle_rental,Docomo Bike Share,ドコモ・バイクシェア,Q55533296,https://docomo-cycle.jp/,yes,yes,2,2
36,38.275856,140.85811,56.ローソン仙台柏木3丁目店,docomo-cycle:00000039,11,bicycle_rental,Docomo Bike Share,ドコモ・バイクシェア,Q55533296,https://docomo-cycle.jp/,yes,yes,2,2
37,38.25508,140.87306,33.東北大学片平キャンパス,docomo-cycle:00000040,4,bicycle_rental,Docomo Bike Share,ドコモ・バイクシェア,Q55533296,https://docomo-cycle.jp/,yes,yes,2,2
38,38.271126,140.861534,34.東北大学病院前,docomo-cycle:00000041,8,bicycle_rental,Docomo Bike Share,ドコモ・バイクシェア,Q55533296,https://docomo-cycle.jp/,yes,yes,2,2
39,38.26064,140.86706,35.戦災復興記念館,docomo-cycle:00000042,5,bicycle_rental,Docomo Bike Share,ドコモ・バイクシェア,Q55533296,https://docomo-cycle.jp/,yes,yes,2,2
40,38.274186,140.86657,86.ファミリーマート仙台木町通店,docomo-cycle:00000043,4,bicycle_rental,Docomo Bike Share,ドコモ・バイクシェア,Q55533296,https://docomo-cycle.jp/,yes,yes,2,2
41,38.257662,140.886527,37.テンザホテル・仙台ステーション,docomo-cycle:00000044,3,bicycle_rental,Docomo Bike Share,ドコモ・バイクシェア,Q55533296,https://docomo-cycle.jp/,yes,yes,2,2
42,38.277859,140.872568,10.プラウドシティ 仙台上杉山通,docomo-cycle:00000046,19,bicycle_rental,Docomo Bike Share,ドコモ・バイクシェア,Q55533296,https://docomo-cycle.jp/,yes,yes,2,2
43,38.264843,140.880408,39.花京院スクエア・緑地,docomo-cycle:00000047,13,bicycle_rental,Docomo Bike Share,ドコモ・バイクシェア,Q55533296,https://docomo-cycle.jp/,yes,yes,2,2
44,38.224223,140.876227,73.太白区役所,docomo-cycle:00000048,12,bicycle_rental,Docomo Bike Share,ドコモ・バイクシェア,Q55533296,https://docomo-cycle.jp/,yes,yes,2,2
45,38.259609,140.881462,41.JR仙台駅西口,docomo-cycle:00000049,20,bicycle_rental,Docomo Bike Share,ドコモ・バイクシェア,Q55533296,https://docomo-cycle.jp/,yes,yes,2,2
46,38.259467,140.879273,42.地下鉄仙台駅西１出入口,docomo-cycle:00000050,1,bicycle_rental,Docomo Bike Share,ドコモ・バイクシェア,Q55533296,https://docomo-cycle.jp/,yes,yes,2,2
47,38.249825,140.905172,43.地下鉄薬師堂駅,docomo-cycle:00000051,8,bicycle_rental,Docomo Bike Share,ドコモ・バイクシェア,Q55533296,https://docomo-cycle.jp/,yes,yes,2,2
48,38.244867,140.900695,44.若林区役所,docomo-cycle:00000052,12,bicycle_rental,Docomo Bike Share,ドコモ・バイクシェア,Q55533296,https://docomo-cycle.jp/,yes,yes,2,2
49,38.259358,140.873645,45.青葉通パークビルディング,docomo-cycle:00000053,15,bicycle_rental,Docomo Bike Share,ドコモ・バイクシェア,Q55533296,https://docomo-cycle.jp/,yes,yes,2,2
50,38.268784,140.886112,87.ファミリーマート小田原五丁目店,docomo-cycle:00000054,12,bicycle_rental,Docomo Bike Share,ドコモ・バイクシェア,Q55533296,https://docomo-cycle.jp/,yes,yes,2,2
51,38.262857,140.878531,28.山一仙台中央ビル,docomo-cycle:00000055,9,bicycle_rental,Docomo Bike Share,ドコモ・バイクシェア,Q55533296,https://docomo-cycle.jp/,yes,yes,2,2
52,38.271804,140.854277,46.朝日プラザ柏木,docomo-cycle:00000056,5,bicycle_rental,Docomo Bike Share,ドコモ・バイクシェア,Q55533296,https://docomo-cycle.jp/,yes,yes,2,2
53,38.26662,140.869483,47.仙台パークビル,docomo-cycle:00000057,10,bicycle_rental,Docomo Bike Share,ドコモ・バイクシェア,Q55533296,https://docomo-cycle.jp/,yes,yes,2,2
54,38.252899,140.867837,58.ローソン仙台瑞鳳店,docomo-cycle:00000058,15,bicycle_rental,Docomo Bike Share,ドコモ・バイクシェア,Q55533296,https://docomo-cycle.jp/,yes,yes,2,2
55,38.224339,140.888128,74.ドコモショップ あすと長町店,docomo-cycle:00000059,12,bicycle_rental,Docomo Bike Share,ドコモ・バイクシェア,Q55533296,https://docomo-cycle.jp/,yes,yes,2,2
56,38.257597,140.879549,48.セブンイレブン仙台中央4丁目店,docomo-cycle:00000060,4,bicycle_rental,Docomo Bike Share,ドコモ・バイクシェア,Q55533296,https://docomo-cycle.jp/,yes,yes,2,2
57,38.263595,140.872276,49.東二番丁スクエア,docomo-cycle:00000061,8,bicycle_rental,Docomo Bike Share,ドコモ・バイクシェア,Q55533296,https://docomo-cycle.jp/,yes,yes,2,2
58,38.252111,140.88134,59.東日本不動産仙台ファーストビル,docomo-cycle:00000062,2,bicycle_rental,Docomo Bike Share,ドコモ・バイクシェア,Q55533296,https://docomo-cycle.jp/,yes,yes,2,2
59,38.256075,140.890826,60.ベルシティ新寺,docomo-cycle:00000063,6,bicycle_rental,Docomo Bike Share,ドコモ・バイクシェア,Q55533296,https://docomo-cycle.jp/,yes,yes,2,2
60,38.234338,140.87073,68.東北工業大学南門,docomo-cycle:00000064,10,bicycle_rental,Docomo Bike Share,ドコモ・バイクシェア,Q55533296,https://docomo-cycle.jp/,yes,yes,2,2
61,38.257291,140.873197,64.カスタリア一番町,docomo-cycle:00000066,1,bicycle_rental,Docomo Bike Share,ドコモ・バイクシェア,Q55533296,https://docomo-cycle.jp/,yes,yes,2,2
62,38.259632,140.866842,65.カスタリア大町,docomo-cycle:00000067,6,bicycle_rental,Docomo Bike Share,ドコモ・バイクシェア,Q55533296,https://docomo-cycle.jp/,yes,yes,2,2
63,38.25812,140.871204,66.仙台太陽生命ビル,docomo-cycle:00000068,7,bicycle_rental,Docomo Bike Share,ドコモ・バイクシェア,Q55533296,https://docomo-cycle.jp/,yes,yes,2,2
64,38.227417,140.885328,67.長町駅西口,docomo-cycle:00000069,13,bicycle_rental,Docomo Bike Share,ドコモ・バイクシェア,Q55533296,https://docomo-cycle.jp/,yes,yes,2,2
65,38.225958,140.883665,70.ユアーズ・パーキング長町駅前,docomo-cycle:00000070,11,bicycle_rental,Docomo Bike Share,ドコモ・バイクシェア,Q55533296,https://docomo-cycle.jp/,yes,yes,2,2
66,38.226154,140.885732,71.IKEA仙台,docomo-cycle:00000071,19,bicycle_rental,Docomo Bike Share,ドコモ・バイクシェア,Q55533296,https://docomo-cycle.jp/,yes,yes,2,2
67,38.25943,140.871626,14.青葉通一番町駅,docomo-cycle:00000072,5,bicycle_rental,Docomo Bike Share,ドコモ・バイクシェア,Q55533296,https://docomo-cycle.jp/,yes,yes,2,2
68,38.234453,140.880293,75.長町２丁目-１,docomo-cycle:00000073,9,bicycle_rental,Docomo Bike Share,ドコモ・バイクシェア,Q55533296,https://docomo-cycle.jp/,yes,yes,2,2
69,38.260881,140.868642,31.enspace,docomo-cycle:00000074,4,bicycle_rental,Docomo Bike Share,ドコモ・バイクシェア,Q55533296,https://docomo-cycle.jp/,yes,yes,2,2
70,38.263582,140.891817,88.Nasic 仙台東口,docomo-cycle:00000076,15,bicycle_rental,Docomo Bike Share,ドコモ・バイクシェア,Q55533296,https://docomo-cycle.jp/,yes,yes,2,2
71,38.262709,140.858804,89.リビングステージ広瀬川,docomo-cycle:00000077,6,bicycle_rental,Docomo Bike Share,ドコモ・バイクシェア,Q55533296,https://docomo-cycle.jp/,yes,yes,2,2
72,38.225498,140.889508,91.ファミリーマートあすと長町店,docomo-cycle:00000079,10,bicycle_rental,Docomo Bike Share,ドコモ・バイクシェア,Q55533296,https://docomo-cycle.jp/,yes,yes,2,2
73,38.262521,140.883057,36.アパホテル<TKP仙台駅北＞,docomo-cycle:00000080,8,bicycle_rental,Docomo Bike Share,ドコモ・バイクシェア,Q55533296,https://docomo-cycle.jp/,yes,yes,2,2
74,38.241683,140.887658,78.ローソン 仙台河原町駅前店,docomo-cycle:00000082,9,bicycle_rental,Docomo Bike Share,ドコモ・バイクシェア,Q55533296,https://docomo-cycle.jp/,yes,yes,2,2
75,38.26509,140.88796,79.ローソン 仙台小田原一丁目店,docomo-cycle:00000083,8,bicycle_rental,Docomo Bike Share,ドコモ・バイクシェア,Q55533296,https://docomo-cycle.jp/,yes,yes,2,2
76,38.261214,140.9055,38.JR宮城野原駅,docomo-cycle:00000084,5,bicycle_rental,Docomo Bike Share,ドコモ・バイクシェア,Q55533296,https://docomo-cycle.jp/,yes,yes,2,2
77,38.26458,140.884864,80.アルティザ仙台花京院,docomo-cycle:00000085,8,bicycle_rental,Docomo Bike Share,ドコモ・バイクシェア,Q55533296,https://docomo-cycle.jp/,yes,yes,2,2
78,38.264503,140.891955,81.フォートレジデンス小田原弓ノ町,docomo-cycle:00000086,7,bicycle_rental,Docomo Bike Share,ドコモ・バイクシェア,Q55533296,https://docomo-cycle.jp/,yes,yes,2,2
79,38.26391,140.894247,82.フォートレジデンス鉄砲町,docomo-cycle:00000087,10,bicycle_rental,Docomo Bike Share,ドコモ・バイクシェア,Q55533296,https://docomo-cycle.jp/,yes,yes,2,2
80,38.257371,140.878591,83.ファミリーマート仙台中央四丁目店,docomo-cycle:00000088,3,bicycle_rental,Docomo Bike Share,ドコモ・バイクシェア,Q55533296,https://docomo-cycle.jp/,yes,yes,2,2
81,38.276163,140.884403,84.ファミリーマート宮町四丁目店,docomo-cycle:00000089,16,bicycle_rental,Docomo Bike Share,ドコモ・バイクシェア,Q55533296,https://docomo-cycle.jp/,yes,yes,2,2
82,38.272755,140.873108,85.バウスクロス仙台上杉,docomo-cycle:00000090,6,bicycle_rental,Docomo Bike Share,ドコモ・バイクシェア,Q55533296,https://docomo-cycle.jp/,yes,yes,2,2
83,38.274421,140.898762,93.無印良品の家 仙台北店,docomo-cycle:00000091,13,bicycle_rental,Docomo Bike Share,ドコモ・バイクシェア,Q55533296,https://docomo-cycle.jp/,yes,yes,2,2
84,38.264145,140.908342,94.ドミール乳銀杏,docomo-cycle:00000092,9,bicycle_rental,Docomo Bike Share,ドコモ・バイクシェア,Q55533296,https://docomo-cycle.jp/,yes,yes,2,2
85,38.276089,140.868138,95.プラウドタワー仙台勾当台通,docomo-cycle:00000094,5,bicycle_rental,Docomo Bike Share,ドコモ・バイクシェア,Q55533296,https://docomo-cycle.jp/,yes,yes,2,2
86,38.266167,140.910633,96.宮城野区役所,docomo-cycle:00000095,7,bicycle_rental,Docomo Bike Share,ドコモ・バイクシェア,Q55533296,https://docomo-cycle.jp/,yes,yes,2,2
87,38.264653,140.890018,97.グラン・ドミール小田原弓ノ町,docomo-cycle:00000096,6,bicycle_rental,Docomo Bike Share,ドコモ・バイクシェア,Q55533296,https://docomo-cycle.jp/,yes,yes,2,2
88,38.22029,140.886329,98.ファミリーマートあすと長町三丁目店,docomo-cycle:00000097,4,bicycle_rental,Docomo Bike Share,ドコモ・バイクシェア,Q55533296,https://docomo-cycle.jp/,yes,yes,2,2
89,38.221584,140.883507,76.ファミリーマート長町六丁目店,docomo-cycle:00000098,4,bicycle_rental,Docomo Bike Share,ドコモ・バイクシェア,Q55533296,https://docomo-cycle.jp/,yes,yes,2,2
90,38.270114,140.857719,99.仙台厚生病院,docomo-cycle:00000099,4,bicycle_rental,Docomo Bike Share,ドコモ・バイクシェア,Q55533296,https://docomo-cycle.jp/,yes,yes,2,2
91,38.274021,140.87876,100.上杉五番館,docomo-cycle:00000100,6,bicycle_rental,Docomo Bike Share,ドコモ・バイクシェア,Q55533296,https://docomo-cycle.jp/,yes,yes,2,2
92,38.265306,140.906343,101.仙台ニュースカイマンション,docomo-cycle:00000101,6,bicycle_rental,Docomo Bike Share,ドコモ・バイクシェア,Q55533296,https://docomo-cycle.jp/,yes,yes,2,2
93,38.263161,140.881636,102.宮城野橋下,docomo-cycle:00000102,34,bicycle_rental,Docomo Bike Share,ドコモ・バイクシェア,Q55533296,https://docomo-cycle.jp/,yes,yes,2,2
94,38.258464,140.857457,103.仙台国際センター,docomo-cycle:00000103,15,bicycle_rental,Docomo Bike Share,ドコモ・バイクシェア,Q55533296,https://docomo-cycle.jp/,yes,yes,2,2
95,38.243242,140.875959,104.東北歯科技工専門学校,docomo-cycle:00000104,10,bicycle_rental,Docomo Bike Share,ドコモ・バイクシェア,Q55533296,https://docomo-cycle.jp/,yes,yes,2,2
96,38.27467,140.887788,105.梅田ハイツ,docomo-cycle:00000105,14,bicycle_rental,Docomo Bike Share,ドコモ・バイクシェア,Q55533296,https://docomo-cycle.jp/,yes,yes,2,2
97,38.254502,140.893705,106.ファミリーマート新寺四丁目店,docomo-cycle:00000106,9,bicycle_rental,Docomo Bike Share,ドコモ・バイクシェア,Q55533296,https://docomo-cycle.jp/,yes,yes,2,2
98,38.240991,140.887238,107.ファミリーマート若林河原町店,docomo-cycle:00000107,5,bicycle_rental,Docomo Bike Share,ドコモ・バイクシェア,Q55533296,https://docomo-cycle.jp/,yes,yes,2,2
99,38.249439,140.902542,108.ファミリーマート仙台薬師堂前店,docomo-cycle:00000108,12,bicycle_rental,Docomo Bike Share,ドコモ・バイクシェア,Q55533296,https://docomo-cycle.jp/,yes,yes,2,2
100,35.698512,139.716482,D4-07.新宿余丁町ビル,docomo-cycle:00000109,3,bicycle_rental,Docomo Bike Share,ドコモ・バイクシェア,Q55533296,https://docomo-cycle.jp/,yes,yes,2,2
101,38.273167,140.896534,110.ファミリーマート仙台幸町二丁目店,docomo-cycle:00000110,15,bicycle_rental,Docomo Bike Share,ドコモ・バイクシェア,Q55533296,https://docomo-cycle.jp/,yes,yes,2,2
102,38.269926,140.865546,40.プラウドタワー仙台晩翠通サウス,docomo-cycle:00000111,7,bicycle_rental,Docomo Bike Share,ドコモ・バイクシェア,Q55533296,https://docomo-cycle.jp/,yes,yes,2,2
103,34.695544,135.528954,G-15.ファミリーマート京橋駅西店,docomo-cycle:00000113,15,bicycle_rental,Docomo Bike Share,ドコモ・バイクシェア,Q55533296,https://docomo-cycle.jp/,yes,yes,0,0
104,34.620884,135.535943,R-11.ファミリーマート針中野二丁目店,docomo-cycle:00000114,4,bicycle_rental,Docomo Bike Share,ドコモ・バイクシェア,Q55533296,https://docomo-cycle.jp/,yes,yes,0,0
105,34.683973,135.466341,J-08.ファミリーマート西九条三丁目店,docomo-cycle:00000115,9,bicycle_rental,Docomo Bike Share,ドコモ・バイクシェア,Q55533296,https://docomo-cycle.jp/,yes,yes,0,0
106,34.704057,135.505319,A-36.ファミリーマート中崎南店,docomo-cycle:00000116,6,bicycle_rental,Docomo Bike Share,ドコモ・バイクシェア,Q55533296,https://docomo-cycle.jp/,yes,yes,0,0
107,34.658599,135.488569,E-27.ファミリーマート芦原橋駅前店,docomo-cycle:00000117,10,bicycle_rental,Docomo Bike Share,ドコモ・バイクシェア,Q55533296,https://docomo-cycle.jp/,yes,yes,0,0
108,34.69761,135.475088,C-01.ファミリーマート海老江一丁目店,docomo-cycle:00000118,7,bicycle_rental,Docomo Bike Share,ドコモ・バイクシェア,Q55533296,https://docomo-cycle.jp/,yes,yes,0,0
109,34.676948,135.557649,H-11.ファミリーマート深江北一丁目店,docomo-cycle:00000119,3,bicycle_rental,Docomo Bike Share,ドコモ・バイクシェア,Q55533296,https://docomo-cycle.jp/,yes,yes,0,0
110,34.679952,135.543333,H-12.ファミリーマート中本三丁目店,docomo-cycle:00000120,7,bicycle_rental,Docomo Bike Share,ドコモ・バイクシェア,Q55533296,https://docomo-cycle.jp/,yes,yes,0,0
111,34.687995,135.550634,H-13.ファミリーマート東中浜四丁目店,docomo-cycle:00000121,2,bicycle_rental,Docomo Bike Share,ドコモ・バイクシェア,Q55533296,https://docomo-cycle.jp/,yes,yes,0,0
112,34.622643,135.484498,I-16.ドコモショップ玉出店,docomo-cycle:00000122,11,bicycle_rental,Docomo Bike Share,ドコモ・バイクシェア,Q55533296,https://docomo-cycle.jp/,yes,yes,0,0
113,35.668395,139.769849,B3-18.銀座松竹スクエア,docomo-cycle:00000123,14,bicycle_rental,Docomo Bike Share,ドコモ・バイクシェア,Q55533296,https://docomo-cycle.jp/,yes,yes,1,2
114,35.68744,139.827075,H1-147.大島四丁目団地,docomo-cycle:00000124,20,bicycle_rental,Docomo Bike Share,ドコモ・バイクシェア,Q55533296,https://docomo-cycle.jp/,yes,yes,2,2
115,35.694104,139.840278,H1-148.大島七丁目団地,docomo-cycle:00000125,10,bicycle_rental,Docomo Bike Share,ドコモ・バイクシェア,Q55533296,https://docomo-cycle.jp/,yes,yes,2,2
116,35.639132,139.793047,H1-149.有明ガーデン 公園口,docomo-cycle:00000126,3,bicycle_rental,Docomo Bike Share,ドコモ・バイクシェア,Q55533296,https://docomo-cycle.jp/,yes,yes,1,2
117,35.636978,139.791858,H1-150.ホテルヴィラフォンテーヌ南側,docomo-cycle:00000127,5,bicycle_rental,Docomo Bike Share,ドコモ・バイクシェア,Q55533296,https://docomo-cycle.jp/,yes,yes,1,2
118,34.668021,135.508295,B-17.クリプトメリア日本橋,docomo-cycle:00000128,3,bicycle_rental,Docomo Bike Share,ドコモ・バイクシェア,Q55533296,https://docomo-cycle.jp/,yes,yes,0,0
119,34.682935,135.452605,J-09.此花区役所,docomo-cycle:00000129,10,bicycle_rental,Docomo Bike Share,ドコモ・バイクシェア,Q55533296,https://docomo-cycle.jp/,yes,yes,0,0
120,34.685816,135.456869,J-11.此花区民ホール,docomo-cycle:00000130,10,bicycle_rental,Docomo Bike Share,ドコモ・バイクシェア,Q55533296,https://docomo-cycle.jp/,yes,yes,0,0
121,35.721679,139.645265,N1-04.都立家政南駐輪場,docomo-cycle:00000131,8,bicycle_rental,Docomo Bike Share,ドコモ・バイクシェア,Q55533296,https://docomo-cycle.jp/,yes,yes,2,1
122,35.629067,139.711779,J1-36.WJ Haus,docomo-cycle:00000132,4,bicycle_rental,Docomo Bike Share,ドコモ・バイクシェア,Q55533296,https://docomo-cycle.jp/,yes,yes,1,2
123,35.688945,139.706536,D1-13.新宿御苑新宿門【西側】,docomo-cycle:00000134,22,bicycle_rental,Docomo Bike Share,ドコモ・バイクシェア,Q55533296,https://docomo-cycle.jp/,yes,yes,2,2
124,34.652031,135.53388,N-14.はたけもり,docomo-cycle:00000136,4,bicycle_rental,Docomo Bike Share,ドコモ・バイクシェア,Q55533296,https://docomo-cycle.jp/,yes,yes,0,0
125,35.172234,136.87632,061.ＮＴＴ則武ビル,docomo-cycle:00000137,5,bicycle_rental,Docomo Bike Share,ドコモ・バイクシェア,Q55533296,https://docomo-cycle.jp/,yes,yes,1,0
126,35.175612,136.921726,062.NTT布池ビル,docomo-cycle:00000138,5,bicycle_rental,Docomo Bike Share,ドコモ・バイクシェア,Q55533296,https://docomo-cycle.jp/,yes,yes,1,1
127,35.1694,136.912338,063.NTT栄ビル（１）（２）,docomo-cycle:00000139,12,bicycle_rental,Docomo Bike Share,ドコモ・バイクシェア,Q55533296,https://docomo-cycle.jp/,yes,yes,1,1
128,35.159334,136.907351,064.NTT上前津ビル,docomo-cycle:00000140,5,bicycle_rental,Docomo Bike Share,ドコモ・バイクシェア,Q55533296,https://docomo-cycle.jp/,yes,yes,0,1
129,35.166407,136.899142,065.NTT広小路ビル,docomo-cycle:00000141,5,bicycle_rental,Docomo Bike Share,ドコモ・バイクシェア,Q55533296,https://docomo-cycle.jp/,yes,yes,0,1
130,33.22999,131.61292,92.線路敷ボードウォーク広場,docomo-cycle:00000143,10,bicycle_rental,Docomo Bike Share,ドコモ・バイクシェア,Q55533296,https://docomo-cycle.jp/,yes,yes,0,0
131,33.23801,131.6024,93. オアシスひろば21-A,docomo-cycle:00000144,4,bicycle_rental,Docomo Bike Share,ドコモ・バイクシェア,Q55533296,https://docomo-cycle.jp/,yes,yes,0,0
132,35.640398,139.704069,J1-37.中目黒公園,docomo-cycle:00000146,18,bicycle_rental,Docomo Bike Share,ドコモ・バイクシェア,Q55533296,https://docomo-cycle.jp/,yes,yes,1,1
133,35.626355,139.700153,J1-38.林試の森公園 北,docomo-cycle:00000147,13,bicycle_rental,Docomo Bike Share,ドコモ・バイクシェア,Q55533296,https://docomo-cycle.jp/,yes,yes,1,1
134,34.668347,135.54481,H-14.ファミリーマート今里駅前店,docomo-cycle:00000148,7,bicycle_rental,Docomo Bike Share,ドコモ・バイクシェア,Q55533296,https://docomo-cycle.jp/,yes,yes,0,0
135,34.718715,135.521349,G-16.ファミリーマート毛馬町一丁目店,docomo-cycle:00000149,11,bicycle_rental,Docomo Bike Share,ドコモ・バイクシェア,Q55533296,https://docomo-cycle.jp/,yes,yes,0,0
136,34.656024,135.501042,E-05.阪高ファインパーク敷津東第1,docomo-cycle:00000150,7,bicycle_rental,Docomo Bike Share,ドコモ・バイクシェア,Q55533296,https://docomo-cycle.jp/,yes,yes,0,0
137,35.655483,139.687325,J1-39.松見坂公園,docomo-cycle:00000151,7,bicycle_rental,Docomo Bike Share,ドコモ・バイクシェア,Q55533296,https://docomo-cycle.jp/,yes,yes,1,1
138,35.555561,139.704345,K1-97.トミンタワー多摩川二丁目,docomo-cycle:00000152,13,bicycle_rental,Docomo Bike Share,ドコモ・バイクシェア,Q55533296,https://docomo-cycle.jp/,yes,yes,1,1
139,35.68752,139.72818,D1-14.コモレ四谷,docomo-cycle:00000153,5,bicycle_rental,Docomo Bike Share,ドコモ・バイクシェア,Q55533296,https://docomo-cycle.jp/,yes,yes,2,2
140,35.616541,139.697369,J1-40.西小山公園,docomo-cycle:00000156,7,bicycle_rental,Docomo Bike Share,ドコモ・バイクシェア,Q55533296,https://docomo-cycle.jp/,yes,yes,1,1
141,35.631319,139.70237,J1-41.CASSIA目黒,docomo-cycle:00000157,8,bicycle_rental,Docomo Bike Share,ドコモ・バイクシェア,Q55533296,https://docomo-cycle.jp/,yes,yes,1,1
142,35.618622,139.67596,J1-42.都立大学駅北口バス停前,docomo-cycle:00000158,8,bicycle_rental,Docomo Bike Share,ドコモ・バイクシェア,Q55533296,https://docomo-cycle.jp/,yes,yes,1,1
143,34.657657,135.505553,E-34.日本橋5-11-6,docomo-cycle:00000160,2,bicycle_rental,Docomo Bike Share,ドコモ・バイクシェア,Q55533296,https://docomo-cycle.jp/,yes,yes,0,0
144,35.65554,139.77102,B4-22.リビオレゾン勝どきNEX,docomo-cycle:00000161,22,bicycle_rental,Docomo Bike Share,ドコモ・バイクシェア,Q55533296,https://docomo-cycle.jp/,yes,yes,1,2
145,35.701347,139.819973,H1-151.コスモリード錦糸町,docomo-cycle:00000162,9,bicycle_rental,Docomo Bike Share,ドコモ・バイクシェア,Q55533296,https://docomo-cycle.jp/,yes,yes,2,2
146,35.699187,139.82429,H1-152.コンポジット亀戸ウエスト,docomo-cycle:00000163,5,bicycle_rental,Docomo Bike Share,ドコモ・バイクシェア,Q55533296,https://docomo-cycle.jp/,yes,yes,2,2
147,34.37361,132.47173,112.ドコモショップ翠町店,docomo-cycle:00000165,5,bicycle_rental,Docomo Bike Share,ドコモ・バイクシェア,Q55533296,https://docomo-cycle.jp/,yes,yes,0,0
148,35.698991,139.76091,A2-25.プラウド神田駿河台,docomo-cycle:00000168,13,bicycle_rental,Docomo Bike Share,ドコモ・バイクシェア,Q55533296,https://docomo-cycle.jp/,yes,yes,2,2
149,36.575763,136.637299,56.長田・金沢彩の庭ホテル,docomo-cycle:00000172,10,bicycle_rental,Docomo Bike Share,ドコモ・バイクシェア,Q55533296,https://docomo-cycle.jp/,yes,yes,2,0
150,34.647752,135.790634,34.JR郡山駅東口(大和郡山市観光協会）,docomo-cycle:00000174,5,bicycle_rental,Docomo Bike Share,ドコモ・バイクシェア,Q55533296,https://docomo-cycle.jp/,yes,yes,0,0
151,35.171138,136.896921,066.名鉄協商パーキング伏見通錦,docomo-cycle:00000175,6,bicycle_rental,Docomo Bike Share,ドコモ・バイクシェア,Q55533296,https://docomo-cycle.jp/,yes,yes,1,1
152,35.142426,136.902294,068.金山駅東口,docomo-cycle:00000176,5,bicycle_rental,Docomo Bike Share,ドコモ・バイクシェア,Q55533296,https://docomo-cycle.jp/,yes,yes,0,1
153,35.608402,139.726118,I1-89.下神明駅自転車駐車場,docomo-cycle:00000180,2,bicycle_rental,Docomo Bike Share,ドコモ・バイクシェア,Q55533296,https://docomo-cycle.jp/,yes,yes,1,2
154,35.655649,139.74427,C2-22.飯倉公園,docomo-cycle:00000181,13,bicycle_rental,Docomo Bike Share,ドコモ・バイクシェア,Q55533296,https://docomo-cycle.jp/,yes,yes,1,2
155,35.160983,136.881957,067.中京テレビ,docomo-cycle:00000185,3,bicycle_rental,Docomo Bike Share,ドコモ・バイクシェア,Q55533296,https://docomo-cycle.jp/,yes,yes,0,1
156,35.176832,136.88548,070.名駅2丁目竹内バイクパーク,docomo-cycle:00000187,5,bicycle_rental,Docomo Bike Share,ドコモ・バイクシェア,Q55533296,https://docomo-cycle.jp/,yes,yes,1,1
157,35.727195,139.590179,T2-38.ファミリーマート 練馬上石神井四丁目店,docomo-cycle:00000190,8,bicycle_rental,Docomo Bike Share,ドコモ・バイクシェア,Q55533296,https://docomo-cycle.jp/,yes,yes,2,1
158,34.708724,135.534343,G-17.大阪シティ信用金庫 都島本通支店,docomo-cycle:00000191,10,bicycle_rental,Docomo Bike Share,ドコモ・バイクシェア,Q55533296,https://docomo-cycle.jp/,yes,yes,0,0
159,34.643127,135.530026,R-12.CASSIA天王寺東,docomo-cycle:00000192,9,bicycle_rental,Docomo Bike Share,ドコモ・バイクシェア,Q55533296,https://docomo-cycle.jp/,yes,yes,0,0
160,35.419003,139.648473,122.ファミリーマート横浜本牧店,docomo-cycle:00000193,4,bicycle_rental,Docomo Bike Share,ドコモ・バイクシェア,Q55533296,https://docomo-cycle.jp/,yes,yes,1,1
161,35.65583,139.759896,C1-71.芝商業高校前交差点,docomo-cycle:00000194,5,bicycle_rental,Docomo Bike Share,ドコモ・バイクシェア,Q55533296,https://docomo-cycle.jp/,yes,yes,1,2
162,34.667138,135.495263,E-35.OCAT駐輪場,docomo-cycle:00000195,11,bicycle_rental,Docomo Bike Share,ドコモ・バイクシェア,Q55533296,https://docomo-cycle.jp/,yes,yes,0,0
163,35.646307,139.746428,C1-72.新田町ビル,docomo-cycle:00000196,8,bicycle_rental,Docomo Bike Share,ドコモ・バイクシェア,Q55533296,https://docomo-cycle.jp/,yes,yes,1,2
164,35.577433,139.680752,K1-98.鵜の木松山公園,docomo-cycle:00000197,7,bicycle_rental,Docomo Bike Share,ドコモ・バイクシェア,Q55533296,https://docomo-cycle.jp/,yes,yes,1,1
165,35.584086,139.67898,K1-99.東原くすのき公園,docomo-cycle:00000198,7,bicycle_rental,Docomo Bike Share,ドコモ・バイクシェア,Q55533296,https://docomo-cycle.jp/,yes,yes,1,1
166,35.589794,139.666955,K1-100.多摩川台公園,docomo-cycle:00000199,5,bicycle_rental,Docomo Bike Share,ドコモ・バイクシェア,Q55533296,https://docomo-cycle.jp/,yes,yes,1,1
167,35.599541,139.697962,K1-101.小池公園,docomo-cycle:00000200,5,bicycle_rental,Docomo Bike Share,ドコモ・バイクシェア,Q55533296,https://docomo-cycle.jp/,yes,yes,1,1
168,35.595119,139.6996,K1-102.上池台四丁目公園,docomo-cycle:00000201,6,bicycle_rental,Docomo Bike Share,ドコモ・バイクシェア,Q55533296,https://docomo-cycle.jp/,yes,yes,1,1
169,37.92328,139.04603,28.東堀パーク600,docomo-cycle:00000203,5,bicycle_rental,Docomo Bike Share,ドコモ・バイクシェア,Q55533296,https://docomo-cycle.jp/,yes,yes,2,1
170,37.920064,139.0513,18.ホテルオークラ新潟,docomo-cycle:00000204,8,bicycle_rental,Docomo Bike Share,ドコモ・バイクシェア,Q55533296,https://docomo-cycle.jp/,yes,yes,2,1
171,35.514643,139.706285,Z21.コーナン川崎小田栄店,docomo-cycle:00000205,5,bicycle_rental,Docomo Bike Share,ドコモ・バイクシェア,Q55533296,https://docomo-cycle.jp/,yes,yes,1,1
172,35.63851,139.823534,H1-153.三井リンクラボ新木場1,docomo-cycle:00000206,13,bicycle_rental,Docomo Bike Share,ドコモ・バイクシェア,Q55533296,https://docomo-cycle.jp/,yes,yes,1,2
173,35.631132,139.792726,H1-154.やぐら橋下,docomo-cycle:00000207,18,bicycle_rental,Docomo Bike Share,ドコモ・バイクシェア,Q55533296,https://docomo-cycle.jp/,yes,yes,1,2
174,35.65494,139.70534,M3-20.東急ステイ渋谷新南口,docomo-cycle:00000208,8,bicycle_rental,Docomo Bike Share,ドコモ・バイクシェア,Q55533296,https://docomo-cycle.jp/,yes,yes,1,1
175,26.217404,127.679892,03.星野リゾートOMO5沖縄那覇,docomo-cycle:00000209,4,bicycle_rental,Docomo Bike Share,ドコモ・バイクシェア,Q55533296,https://docomo-cycle.jp/,yes,yes,0,0
176,38.223217,140.87109,77.ローソン仙台泉崎一丁目店,docomo-cycle:00000210,10,bicycle_rental,Docomo Bike Share,ドコモ・バイクシェア,Q55533296,https://docomo-cycle.jp/,yes,yes,2,2
177,38.244684,140.885819,92.ローソン仙台土樋店,docomo-cycle:00000211,10,bicycle_rental,Docomo Bike Share,ドコモ・バイクシェア,Q55533296,https://docomo-cycle.jp/,yes,yes,2,2
178,35.690899,139.706348,D6-28.東急ステイ新宿,docomo-cycle:00000212,4,bicycle_rental,Docomo Bike Share,ドコモ・バイクシェア,Q55533296,https://docomo-cycle.jp/,yes,yes,2,2
179,35.177253,136.910716,074.St.Regis IZUMI (セントレジス泉）,docomo-cycle:00000214,3,bicycle_rental,Docomo Bike Share,ドコモ・バイクシェア,Q55533296,https://docomo-cycle.jp/,yes,yes,1,1
180,35.758929,139.597548,T2-39.ローソン 練馬大泉町五丁目店,docomo-cycle:00000217,8,bicycle_rental,Docomo Bike Share,ドコモ・バイクシェア,Q55533296,https://docomo-cycle.jp/,yes,yes,2,1
181,36.553237,136.62046,38.西金沢駅B,docomo-cycle:00000218,9,bicycle_rental,Docomo Bike Share,ドコモ・バイクシェア,Q55533296,https://docomo-cycle.jp/,yes,yes,2,0
182,34.705611,135.536647,L-02.ファミリーマート城東えなみ店,docomo-cycle:00000223,6,bicycle_rental,Docomo Bike Share,ドコモ・バイクシェア,Q55533296,https://docomo-cycle.jp/,yes,yes,0,0
183,34.683222,135.549928,L-03.ファミリーマート東中浜六丁目店,docomo-cycle:00000224,6,bicycle_rental,Docomo Bike Share,ドコモ・バイクシェア,Q55533296,https://docomo-cycle.jp/,yes,yes,0,0
184,34.670373,135.465655,O-07.ファミリーマート波除中央大通店,docomo-cycle:00000225,10,bicycle_rental,Docomo Bike Share,ドコモ・バイクシェア,Q55533296,https://docomo-cycle.jp/,yes,yes,0,0
185,34.661542,135.497565,E-09.東横INN大阪なんば西,docomo-cycle:00000227,4,bicycle_rental,Docomo Bike Share,ドコモ・バイクシェア,Q55533296,https://docomo-cycle.jp/,yes,yes,0,0
186,35.154116,136.906092,071.名鉄協商パーキング前津通,docomo-cycle:00000229,5,bicycle_rental,Docomo Bike Share,ドコモ・バイクシェア,Q55533296,https://docomo-cycle.jp/,yes,yes,0,1
187,35.16256,136.914532,072.名鉄協商パーキング栄5丁目南,docomo-cycle:00000230,4,bicycle_rental,Docomo Bike Share,ドコモ・バイクシェア,Q55533296,https://docomo-cycle.jp/,yes,yes,0,1
188,35.167385,136.889546,073.トヨタレンタリース愛知 柳橋店,docomo-cycle:00000231,7,bicycle_rental,Docomo Bike Share,ドコモ・バイクシェア,Q55533296,https://docomo-cycle.jp/,yes,yes,0,1
189,35.594515,139.691219,K1-103.雪谷特別出張所,docomo-cycle:00000232,3,bicycle_rental,Docomo Bike Share,ドコモ・バイクシェア,Q55533296,https://docomo-cycle.jp/,yes,yes,1,1
190,35.543573,139.714393,K1-104.六郷BASE,docomo-cycle:00000233,12,bicycle_rental,Docomo Bike Share,ドコモ・バイクシェア,Q55533296,https://docomo-cycle.jp/,yes,yes,1,2
191,35.555702,139.740802,K1-105.東糀谷二丁目児童公園,docomo-cycle:00000234,13,bicycle_rental,Docomo Bike Share,ドコモ・バイクシェア,Q55533296,https://docomo-cycle.jp/,yes,yes,1,2
192,33.2332,131.60503,95.大分駅高架下西駐輪場,docomo-cycle:00000235,10,bicycle_rental,Docomo Bike Share,ドコモ・バイクシェア,Q55533296,https://docomo-cycle.jp/,yes,yes,0,0
193,33.22844,131.61375,96.バイシクルフレンドリーステーション,docomo-cycle:00000236,4,bicycle_rental,Docomo Bike Share,ドコモ・バイクシェア,Q55533296,https://docomo-cycle.jp/,yes,yes,0,0
194,35.653771,139.769295,B4-23.交通広場（豊海町）,docomo-cycle:00000237,10,bicycle_rental,Docomo Bike Share,ドコモ・バイクシェア,Q55533296,https://docomo-cycle.jp/,yes,yes,1,2
195,38.259441,140.886683,109.ホテル仙台ガーデンパレス,docomo-cycle:00000239,8,bicycle_rental,Docomo Bike Share,ドコモ・バイクシェア,Q55533296,https://docomo-cycle.jp/,yes,yes,2,2
196,35.173401,136.876506,075.CUBE名駅,docomo-cycle:00000240,4,bicycle_rental,Docomo Bike Share,ドコモ・バイクシェア,Q55533296,https://docomo-cycle.jp/,yes,yes,1,0
197,34.648068,135.50137,I-17.ビジネスホテル加賀,docomo-cycle:00000241,2,bicycle_rental,Docomo Bike Share,ドコモ・バイクシェア,Q55533296,https://docomo-cycle.jp/,yes,yes,0,0
198,34.684005,135.192959,17.新港町,docomo-cycle:00000243,11,bicycle_rental,Docomo Bike Share,ドコモ・バイクシェア,Q55533296,https://docomo-cycle.jp/,yes,yes,0,0
199,34.3925,132.504088,113.府中町役場,docomo-cycle:00000244,7,bicycle_rental,Docomo Bike Share,ドコモ・バイクシェア,Q55533296,https://docomo-cycle.jp/,yes,yes,0,0
200,34.39378,132.49839,114.イオンモール広島府中,docomo-cycle:00000245,8,bicycle_rental,Docomo Bike Share,ドコモ・バイクシェア,Q55533296,https://docomo-cycle.jp/,yes,yes,0,0
201,35.599329,139.703343,K1-106.ファミリーマート上池台夫婦坂店,docomo-cycle:00000246,8,bicycle_rental,Docomo Bike Share,ドコモ・バイクシェア,Q55533296,https://docomo-cycle.jp/,yes,yes,1,1
202,35.160686,136.881182,076.ロイヤルパークスＥＲささしま,docomo-cycle:00000250,9,bicycle_rental,Docomo Bike Share,ドコモ・バイクシェア,Q55533296,https://docomo-cycle.jp/,yes,yes,0,1
203,35.182883,136.893885,077.グランメール城西,docomo-cycle:00000251,4,bicycle_rental,Docomo Bike Share,ドコモ・バイクシェア,Q55533296,https://docomo-cycle.jp/,yes,yes,1,1
204,35.205894,136.891323,078.庄内ハウス,docomo-cycle:00000252,5,bicycle_rental,Docomo Bike Share,ドコモ・バイクシェア,Q55533296,https://docomo-cycle.jp/,yes,yes,1,1
205,34.682251,135.505191,B-19.KDX南本町ビル,docomo-cycle:00000260,5,bicycle_rental,Docomo Bike Share,ドコモ・バイクシェア,Q55533296,https://docomo-cycle.jp/,yes,yes,0,0
206,34.668307,135.463334,O-08.ファミリーマート弁天町駅前店,docomo-cycle:00000261,6,bicycle_rental,Docomo Bike Share,ドコモ・バイクシェア,Q55533296,https://docomo-cycle.jp/,yes,yes,0,0
207,34.686564,135.448824,J-12.UR伝法団地,docomo-cycle:00000262,11,bicycle_rental,Docomo Bike Share,ドコモ・バイクシェア,Q55533296,https://docomo-cycle.jp/,yes,yes,0,0
208,34.687582,135.460087,J-13.UR千鳥橋団地,docomo-cycle:00000263,28,bicycle_rental,Docomo Bike Share,ドコモ・バイクシェア,Q55533296,https://docomo-cycle.jp/,yes,yes,0,0
209,34.684736,135.439396,J-14.UR酉島リバーサイドヒルなぎさ街,docomo-cycle:00000264,8,bicycle_rental,Docomo Bike Share,ドコモ・バイクシェア,Q55533296,https://docomo-cycle.jp/,yes,yes,0,0
210,34.691763,135.460034,J-15.UR高見フローラルタウン6番街,docomo-cycle:00000265,9,bicycle_rental,Docomo Bike Share,ドコモ・バイクシェア,Q55533296,https://docomo-cycle.jp/,yes,yes,0,0
211,35.163562,136.890869,079.エディオン名古屋本店,docomo-cycle:00000266,5,bicycle_rental,Docomo Bike Share,ドコモ・バイクシェア,Q55533296,https://docomo-cycle.jp/,yes,yes,0,1
212,34.698414,135.489506,C-13.アパホテル大阪梅田,docomo-cycle:00000267,5,bicycle_rental,Docomo Bike Share,ドコモ・バイクシェア,Q55533296,https://docomo-cycle.jp/,yes,yes,0,0
213,35.596854,139.712139,K1-107.馬込駅A2出口,docomo-cycle:00000269,22,bicycle_rental,Docomo Bike Share,ドコモ・バイクシェア,Q55533296,https://docomo-cycle.jp/,yes,yes,1,2
214,35.557999,139.732564,K1-108.仲江名公園,docomo-cycle:00000270,4,bicycle_rental,Docomo Bike Share,ドコモ・バイクシェア,Q55533296,https://docomo-cycle.jp/,yes,yes,1,2
215,35.549323,139.737091,K1-109.萩中公園プール駐輪場,docomo-cycle:00000271,6,bicycle_rental,Docomo Bike Share,ドコモ・バイクシェア,Q55533296,https://docomo-cycle.jp/,yes,yes,1,2
216,35.550479,139.739538,K1-110.萩中集会所裏,docomo-cycle:00000272,12,bicycle_rental,Docomo Bike Share,ドコモ・バイクシェア,Q55533296,https://docomo-cycle.jp/,yes,yes,1,2
217,35.546499,139.736761,K1-111.本羽田公園,docomo-cycle:00000273,22,bicycle_rental,Docomo Bike Share,ドコモ・バイクシェア,Q55533296,https://docomo-cycle.jp/,yes,yes,1,2
218,26.13218,127.65296,04.サザンビーチホテル＆リゾート沖縄,docomo-cycle:00000274,7,bicycle_rental,Docomo Bike Share,ドコモ・バイクシェア,Q55533296,https://docomo-cycle.jp/,yes,yes,0,0
219,35.713913,139.745416,E1-17.小石川パークスクエア,docomo-cycle:00000277,9,bicycle_rental,Docomo Bike Share,ドコモ・バイクシェア,Q55533296,https://docomo-cycle.jp/,yes,yes,2,2
220,34.665411,134.961701,【他ポートへの返却不可】01_スマート駅リンくん西明石,docomo-cycle:00000280,6,bicycle_rental,Docomo Bike Share,ドコモ・バイクシェア,Q55533296,https://docomo-cycle.jp/,yes,yes,0,0
221,35.380742,136.944674,080.名鉄協商パーキング犬山駅前,docomo-cycle:00000281,4,bicycle_rental,Docomo Bike Share,ドコモ・バイクシェア,Q55533296,https://docomo-cycle.jp/,yes,yes,1,1
222,35.669871,139.753147,C1-73.日比谷フォートタワー,docomo-cycle:00000283,14,bicycle_rental,Docomo Bike Share,ドコモ・バイクシェア,Q55533296,https://docomo-cycle.jp/,yes,yes,1,2
223,26.21429,127.67963,06.パレットくもじ県庁前駅下,docomo-cycle:00000284,5,bicycle_rental,Docomo Bike Share,ドコモ・バイクシェア,Q55533296,https://docomo-cycle.jp/,yes,yes,0,0
224,35.594658,139.700133,K1-113.ファミリーマート大田上池台四丁目店,docomo-cycle:00000291,7,bicycle_rental,Docomo Bike Share,ドコモ・バイクシェア,Q55533296,https://docomo-cycle.jp/,yes,yes,1,1
225,33.24183,131.60025,97.大分ソフィアプラザビル,docomo-cycle:00000293,14,bicycle_rental,Docomo Bike Share,ドコモ・バイクシェア,Q55533296,https://docomo-cycle.jp/,yes,yes,0,0
226,34.639479,135.538205,R-13.杭全バス停,docomo-cycle:00000294,5,bicycle_rental,Docomo Bike Share,ドコモ・バイクシェア,Q55533296,https://docomo-cycle.jp/,yes,yes,0,0
227,34.682882,135.437997,J-16.ファミリーマート此花酉島店,docomo-cycle:00000295,6,bicycle_rental,Docomo Bike Share,ドコモ・バイクシェア,Q55533296,https://docomo-cycle.jp/,yes,yes,0,0
228,34.676361,135.440181,J-17.ファミリーマート此花島屋店,docomo-cycle:00000296,6,bicycle_rental,Docomo Bike Share,ドコモ・バイクシェア,Q55533296,https://docomo-cycle.jp/,yes,yes,0,0
229,34.677831,135.443261,J-18.ファミリーマート島屋一丁目店,docomo-cycle:00000297,5,bicycle_rental,Docomo Bike Share,ドコモ・バイクシェア,Q55533296,https://docomo-cycle.jp/,yes,yes,0,0
230,34.677661,135.444021,J-19.ファミリーマート島屋三丁目店,docomo-cycle:00000298,9,bicycle_rental,Docomo Bike Share,ドコモ・バイクシェア,Q55533296,https://docomo-cycle.jp/,yes,yes,0,0
231,35.568722,139.680736,K1-114.下丸子公園,docomo-cycle:00000301,8,bicycle_rental,Docomo Bike Share,ドコモ・バイクシェア,Q55533296,https://docomo-cycle.jp/,yes,yes,1,1
232,35.565685,139.736195,K1-115.旧呑川緑地（大森中三丁目）,docomo-cycle:00000302,13,bicycle_rental,Docomo Bike Share,ドコモ・バイクシェア,Q55533296,https://docomo-cycle.jp/,yes,yes,1,2
233,35.567176,139.742345,K1-116.旧呑川緑地（大森東五丁目）,docomo-cycle:00000303,11,bicycle_rental,Docomo Bike Share,ドコモ・バイクシェア,Q55533296,https://docomo-cycle.jp/,yes,yes,1,2
234,35.471425,139.638634,124.クリオ レジダンス横濱 ベイサイド,docomo-cycle:00000304,8,bicycle_rental,Docomo Bike Share,ドコモ・バイクシェア,Q55533296,https://docomo-cycle.jp/,yes,yes,1,1
235,35.168031,136.922982,082.名鉄協商パーキング新栄第16,docomo-cycle:00000305,6,bicycle_rental,Docomo Bike Share,ドコモ・バイクシェア,Q55533296,https://docomo-cycle.jp/,yes,yes,0,1
236,35.193483,136.937774,083.名鉄協商パーキング大曽根第13,docomo-cycle:00000306,3,bicycle_rental,Docomo Bike Share,ドコモ・バイクシェア,Q55533296,https://docomo-cycle.jp/,yes,yes,1,1
237,38.239556,140.897471,113.南小泉三丁目,docomo-cycle:00000308,17,bicycle_rental,Docomo Bike Share,ドコモ・バイクシェア,Q55533296,https://docomo-cycle.jp/,yes,yes,2,2
238,35.674094,139.728895,C3-29.高橋是清翁記念公園,docomo-cycle:00000309,7,bicycle_rental,Docomo Bike Share,ドコモ・バイクシェア,Q55533296,https://docomo-cycle.jp/,yes,yes,2,2
239,35.165812,136.925795,084.名鉄協商パーキング菊里町,docomo-cycle:00000310,3,bicycle_rental,Docomo Bike Share,ドコモ・バイクシェア,Q55533296,https://docomo-cycle.jp/,yes,yes,0,1
240,35.169119,136.926382,085.名鉄協商パーキング広小路車道第2,docomo-cycle:00000311,4,bicycle_rental,Docomo Bike Share,ドコモ・バイクシェア,Q55533296,https://docomo-cycle.jp/,yes,yes,0,1
241,34.42029,132.46012,077.ファミリーマート大芝二丁目店,docomo-cycle:00000315,7,bicycle_rental,Docomo Bike Share,ドコモ・バイクシェア,Q55533296,https://docomo-cycle.jp/,yes,yes,0,0
242,35.1718,136.901728,086.CASSIA錦本町通,docomo-cycle:00000316,3,bicycle_rental,Docomo Bike Share,ドコモ・バイクシェア,Q55533296,https://docomo-cycle.jp/,yes,yes,1,1
243,35.174533,136.925483,087.CASSIA車道,docomo-cycle:00000317,3,bicycle_rental,Docomo Bike Share,ドコモ・バイクシェア,Q55533296,https://docomo-cycle.jp/,yes,yes,1,1
244,35.712413,139.70168,D3-14.コーシャハイム高田馬場,docomo-cycle:00000318,6,bicycle_rental,Docomo Bike Share,ドコモ・バイクシェア,Q55533296,https://docomo-cycle.jp/,yes,yes,2,1
245,35.716359,139.704377,D7-11.新宿清掃事務所,docomo-cycle:00000319,6,bicycle_rental,Docomo Bike Share,ドコモ・バイクシェア,Q55533296,https://docomo-cycle.jp/,yes,yes,2,1
246,34.684771,135.442462,J-20.ファミリーマート酉島二丁目店,docomo-cycle:00000322,4,bicycle_rental,Docomo Bike Share,ドコモ・バイクシェア,Q55533296,https://docomo-cycle.jp/,yes,yes,0,0
247,36.351464,140.306352,友部駅（北口）,docomo-cycle:00000326,7,bicycle_rental,Docomo Bike Share,ドコモ・バイクシェア,Q55533296,https://docomo-cycle.jp/,yes,yes,2,2
248,36.35568,140.274638,道の駅 かさま,docomo-cycle:00000327,6,bicycle_rental,Docomo Bike Share,ドコモ・バイクシェア,Q55533296,https://docomo-cycle.jp/,yes,yes,2,2
249,36.373397,140.246433,笠間駅,docomo-cycle:00000328,6,bicycle_rental,Docomo Bike Share,ドコモ・バイクシェア,Q55533296,https://docomo-cycle.jp/,yes,yes,2,2
250,36.37264,140.261229,笠間芸術の森公園（笠間工芸の丘）,docomo-cycle:00000329,6,bicycle_rental,Docomo Bike Share,ドコモ・バイクシェア,Q55533296,https://docomo-cycle.jp/,yes,yes,2,2
251,36.384529,140.256644,笠間稲荷門前通り（かさま歴史交流館井筒屋）,docomo-cycle:00000330,6,bicycle_rental,Docomo Bike Share,ドコモ・バイクシェア,Q55533296,https://docomo-cycle.jp/,yes,yes,2,2
252,34.3797,132.43903,099.ファミリーマート舟入南二丁目店,docomo-cycle:00000332,3,bicycle_rental,Docomo Bike Share,ドコモ・バイクシェア,Q55533296,https://docomo-cycle.jp/,yes,yes,0,0
253,34.38426,132.48716,115.ファミリーマート上東雲町店,docomo-cycle:00000333,5,bicycle_rental,Docomo Bike Share,ドコモ・バイクシェア,Q55533296,https://docomo-cycle.jp/,yes,yes,0,0
254,34.3718,132.47527,116.ファミリーマート西旭町店,docomo-cycle:00000334,3,bicycle_rental,Docomo Bike Share,ドコモ・バイクシェア,Q55533296,https://docomo-cycle.jp/,yes,yes,0,0
255,34.42124,132.4585,117.ファミリーマート広島大宮店,docomo-cycle:00000335,6,bicycle_rental,Docomo Bike Share,ドコモ・バイクシェア,Q55533296,https://docomo-cycle.jp/,yes,yes,0,0
256,34.37912,132.45686,118.ファミリーマート広島千田町店,docomo-cycle:00000336,7,bicycle_rental,Docomo Bike Share,ドコモ・バイクシェア,Q55533296,https://docomo-cycle.jp/,yes,yes,0,0
257,26.15747,127.65614,13.豊見城市観光協会,docomo-cycle:00000339,5,bicycle_rental,Docomo Bike Share,ドコモ・バイクシェア,Q55533296,https://docomo-cycle.jp/,yes,yes,0,0
258,35.174414,136.885305,093.ファミリーマート名駅東店,docomo-cycle:00000341,6,bicycle_rental,Docomo Bike Share,ドコモ・バイクシェア,Q55533296,https://docomo-cycle.jp/,yes,yes,1,1
259,35.18677,136.871088,094.ファミリーマート栄生二丁目店,docomo-cycle:00000342,3,bicycle_rental,Docomo Bike Share,ドコモ・バイクシェア,Q55533296,https://docomo-cycle.jp/,yes,yes,1,0
260,35.160418,136.918942,095.ファミリーマート千早店,docomo-cycle:00000343,5,bicycle_rental,Docomo Bike Share,ドコモ・バイクシェア,Q55533296,https://docomo-cycle.jp/,yes,yes,0,1
261,35.163715,136.91096,096.ファミリーマート南武平町店,docomo-cycle:00000344,5,bicycle_rental,Docomo Bike Share,ドコモ・バイクシェア,Q55533296,https://docomo-cycle.jp/,yes,yes,0,1
262,35.144183,136.906696,097.ファミリーマート金山五丁目店,docomo-cycle:00000345,4,bicycle_rental,Docomo Bike Share,ドコモ・バイクシェア,Q55533296,https://docomo-cycle.jp/,yes,yes,0,1
263,35.186986,136.924687,098.ファミリーマート芳野三丁目店,docomo-cycle:00000346,2,bicycle_rental,Docomo Bike Share,ドコモ・バイクシェア,Q55533296,https://docomo-cycle.jp/,yes,yes,1,1
264,35.129268,136.895175,099.ファミリーマート熱田大宝店,docomo-cycle:00000347,3,bicycle_rental,Docomo Bike Share,ドコモ・バイクシェア,Q55533296,https://docomo-cycle.jp/,yes,yes,0,1
265,35.143028,136.905126,100.ファミリーマート熱田波寄町店,docomo-cycle:00000348,4,bicycle_rental,Docomo Bike Share,ドコモ・バイクシェア,Q55533296,https://docomo-cycle.jp/,yes,yes,0,1
266,35.159844,136.935104,101.ファミリーマート吹上駅北店,docomo-cycle:00000349,9,bicycle_rental,Docomo Bike Share,ドコモ・バイクシェア,Q55533296,https://docomo-cycle.jp/,yes,yes,0,1
267,35.64096,139.75754,C5-40.芝浦ふ頭駅前暫定自転車駐車場,docomo-cycle:00000350,2,bicycle_rental,Docomo Bike Share,ドコモ・バイクシェア,Q55533296,https://docomo-cycle.jp/,yes,yes,1,2
268,35.65618,139.69612,M3-21.渋谷ソラスタ,docomo-cycle:00000351,10,bicycle_rental,Docomo Bike Share,ドコモ・バイクシェア,Q55533296,https://docomo-cycle.jp/,yes,yes,1,1
269,35.44491,139.647974,125.タイムズステーション横浜山下町B,docomo-cycle:00000354,5,bicycle_rental,Docomo Bike Share,ドコモ・バイクシェア,Q55533296,https://docomo-cycle.jp/,yes,yes,1,1
270,35.458566,139.62837,126.神奈川大学みなとみらいキャンパス,docomo-cycle:00000355,19,bicycle_rental,Docomo Bike Share,ドコモ・バイクシェア,Q55533296,https://docomo-cycle.jp/,yes,yes,1,1
271,38.272341,140.903512,117.アクロスプラザ仙台幸町,docomo-cycle:00000356,10,bicycle_rental,Docomo Bike Share,ドコモ・バイクシェア,Q55533296,https://docomo-cycle.jp/,yes,yes,2,2
272,35.176996,136.863369,102.ファミリーマート中村上ノ宮町店,docomo-cycle:00000357,3,bicycle_rental,Docomo Bike Share,ドコモ・バイクシェア,Q55533296,https://docomo-cycle.jp/,yes,yes,1,0
273,35.170187,136.872669,103.ファミリーマート則武本通店,docomo-cycle:00000358,3,bicycle_rental,Docomo Bike Share,ドコモ・バイクシェア,Q55533296,https://docomo-cycle.jp/,yes,yes,1,0
274,35.170937,136.920249,104.ファミリーマート葵店,docomo-cycle:00000359,3,bicycle_rental,Docomo Bike Share,ドコモ・バイクシェア,Q55533296,https://docomo-cycle.jp/,yes,yes,1,1
275,35.170533,136.921465,105.ファミリーマート葵一丁目店,docomo-cycle:00000360,3,bicycle_rental,Docomo Bike Share,ドコモ・バイクシェア,Q55533296,https://docomo-cycle.jp/,yes,yes,1,1
276,35.17615,136.924683,106.ファミリーマート代官町東店,docomo-cycle:00000361,3,bicycle_rental,Docomo Bike Share,ドコモ・バイクシェア,Q55533296,https://docomo-cycle.jp/,yes,yes,1,1
277,35.192955,136.903008,107.ファミリーマート金城一丁目店,docomo-cycle:00000362,6,bicycle_rental,Docomo Bike Share,ドコモ・バイクシェア,Q55533296,https://docomo-cycle.jp/,yes,yes,1,1
278,35.158046,136.848733,108.ファミリーマート岩塚本通三丁目店,docomo-cycle:00000363,7,bicycle_rental,Docomo Bike Share,ドコモ・バイクシェア,Q55533296,https://docomo-cycle.jp/,yes,yes,0,0
279,35.157846,136.842945,109.ファミリーマート岩塚本通五丁目店,docomo-cycle:00000364,4,bicycle_rental,Docomo Bike Share,ドコモ・バイクシェア,Q55533296,https://docomo-cycle.jp/,yes,yes,0,0
280,35.168196,136.919224,110.ＲＴセンターステージビル,docomo-cycle:00000365,4,bicycle_rental,Docomo Bike Share,ドコモ・バイクシェア,Q55533296,https://docomo-cycle.jp/,yes,yes,0,1
281,35.124198,136.912221,111.名鉄協商パーキング神宮前駅西立体駐車場,docomo-cycle:00000366,5,bicycle_rental,Docomo Bike Share,ドコモ・バイクシェア,Q55533296,https://docomo-cycle.jp/,yes,yes,0,1
282,35.146467,136.900576,112.サンプラザ金山,docomo-cycle:00000367,1,bicycle_rental,Docomo Bike Share,ドコモ・バイクシェア,Q55533296,https://docomo-cycle.jp/,yes,yes,0,1
283,35.181068,136.879719,113イオンモールNagoyaNoritakeGarden前,docomo-cycle:00000368,8,bicycle_rental,Docomo Bike Share,ドコモ・バイクシェア,Q55533296,https://docomo-cycle.jp/,yes,yes,1,0
284,35.181193,136.880191,114.則武新町立体駐車場前,docomo-cycle:00000369,10,bicycle_rental,Docomo Bike Share,ドコモ・バイクシェア,Q55533296,https://docomo-cycle.jp/,yes,yes,1,1
285,35.72515,139.672614,N2-06.江古田1丁目B,docomo-cycle:00000370,6,bicycle_rental,Docomo Bike Share,ドコモ・バイクシェア,Q55533296,https://docomo-cycle.jp/,yes,yes,2,1
286,35.715538,139.701683,D7-12.プラウド高田馬場,docomo-cycle:00000371,6,bicycle_rental,Docomo Bike Share,ドコモ・バイクシェア,Q55533296,https://docomo-cycle.jp/,yes,yes,2,1
287,35.63237,139.712681,J1-43.アルコタワー・ホテル雅叙園東京,docomo-cycle:00000372,11,bicycle_rental,Docomo Bike Share,ドコモ・バイクシェア,Q55533296,https://docomo-cycle.jp/,yes,yes,1,2
288,34.684273,135.793637,40.平城宮跡前駐車場,docomo-cycle:00000374,5,bicycle_rental,Docomo Bike Share,ドコモ・バイクシェア,Q55533296,https://docomo-cycle.jp/,yes,yes,0,0
289,35.581798,139.695222,K1-117.安詳寺,docomo-cycle:00000375,19,bicycle_rental,Docomo Bike Share,ドコモ・バイクシェア,Q55533296,https://docomo-cycle.jp/,yes,yes,1,1
290,35.580741,139.687152,K1-118.久が原3丁目,docomo-cycle:00000376,10,bicycle_rental,Docomo Bike Share,ドコモ・バイクシェア,Q55533296,https://docomo-cycle.jp/,yes,yes,1,1
291,35.571866,139.703214,K1-125.池上駅南口第1,docomo-cycle:00000377,2,bicycle_rental,Docomo Bike Share,ドコモ・バイクシェア,Q55533296,https://docomo-cycle.jp/,yes,yes,1,1
292,35.571815,139.702387,K1-126.池上駅南口第2,docomo-cycle:00000378,3,bicycle_rental,Docomo Bike Share,ドコモ・バイクシェア,Q55533296,https://docomo-cycle.jp/,yes,yes,1,1
293,35.627599,139.782953,H1-159.夢の大橋西,docomo-cycle:00000380,16,bicycle_rental,Docomo Bike Share,ドコモ・バイクシェア,Q55533296,https://docomo-cycle.jp/,yes,yes,1,2
294,35.630791,139.787396,H1-156.つどい橋下,docomo-cycle:00000381,9,bicycle_rental,Docomo Bike Share,ドコモ・バイクシェア,Q55533296,https://docomo-cycle.jp/,yes,yes,1,2
295,38.26036,140.893328,114.榴岡天満宮,docomo-cycle:00000382,9,bicycle_rental,Docomo Bike Share,ドコモ・バイクシェア,Q55533296,https://docomo-cycle.jp/,yes,yes,2,2
296,35.67741,139.67383,M6-15.cova Hatagaya,docomo-cycle:00000383,3,bicycle_rental,Docomo Bike Share,ドコモ・バイクシェア,Q55533296,https://docomo-cycle.jp/,yes,yes,2,1
297,35.68168,139.77825,B2-15.KABUTO ONE,docomo-cycle:00000384,5,bicycle_rental,Docomo Bike Share,ドコモ・バイクシェア,Q55533296,https://docomo-cycle.jp/,yes,yes,2,2
298,35.624619,139.776006,H1-143.ダイバーシティ東京 プラザ,docomo-cycle:00000386,9,bicycle_rental,Docomo Bike Share,ドコモ・バイクシェア,Q55533296,https://docomo-cycle.jp/,yes,yes,1,2
299,35.177033,136.908939,118.ライブコート泉,docomo-cycle:00000388,6,bicycle_rental,Docomo Bike Share,ドコモ・バイクシェア,Q55533296,https://docomo-cycle.jp/,yes,yes,1,1
300,35.165423,136.898113,124.名鉄協商パーキング白川公園,docomo-cycle:00000389,4,bicycle_rental,Docomo Bike Share,ドコモ・バイクシェア,Q55533296,https://docomo-cycle.jp/,yes,yes,0,1
301,35.184569,136.893505,115.ファミリーマート城西二丁目店,docomo-cycle:00000390,3,bicycle_rental,Docomo Bike Share,ドコモ・バイクシェア,Q55533296,https://docomo-cycle.jp/,yes,yes,1,1
302,35.181023,136.885714,116.ファミリーマート菊井一丁目店,docomo-cycle:00000391,2,bicycle_rental,Docomo Bike Share,ドコモ・バイクシェア,Q55533296,https://docomo-cycle.jp/,yes,yes,1,1
303,35.184704,136.919934,117.ファミリーマート芳野一丁目店,docomo-cycle:00000392,3,bicycle_rental,Docomo Bike Share,ドコモ・バイクシェア,Q55533296,https://docomo-cycle.jp/,yes,yes,1,1
304,35.17497,136.887116,119.ファミリーマート那古野南店,docomo-cycle:00000393,4,bicycle_rental,Docomo Bike Share,ドコモ・バイクシェア,Q55533296,https://docomo-cycle.jp/,yes,yes,1,1
305,35.153325,136.911482,120.ファミリーマート名古屋千代田店,docomo-cycle:00000394,7,bicycle_rental,Docomo Bike Share,ドコモ・バイクシェア,Q55533296,https://docomo-cycle.jp/,yes,yes,0,1
306,35.191195,136.908134,121.ファミリーマート柳原二丁目店,docomo-cycle:00000395,3,bicycle_rental,Docomo Bike Share,ドコモ・バイクシェア,Q55533296,https://docomo-cycle.jp/,yes,yes,1,1
307,35.154944,136.898274,122.ファミリーマート松原二丁目店,docomo-cycle:00000396,3,bicycle_rental,Docomo Bike Share,ドコモ・バイクシェア,Q55533296,https://docomo-cycle.jp/,yes,yes,0,1
308,35.166588,136.86575,123.ファミリーマート中村大宮町店,docomo-cycle:00000397,3,bicycle_rental,Docomo Bike Share,ドコモ・バイクシェア,Q55533296,https://docomo-cycle.jp/,yes,yes,0,0
309,35.644241,139.753834,C5-42.DHC芝浦2丁目ビル,docomo-cycle:00000398,7,bicycle_rental,Docomo Bike Share,ドコモ・バイクシェア,Q55533296,https://docomo-cycle.jp/,yes,yes,1,2
310,35.639644,139.745532,C5-41.トヨタモビリティ東京 芝浦店,docomo-cycle:00000399,6,bicycle_rental,Docomo Bike Share,ドコモ・バイクシェア,Q55533296,https://docomo-cycle.jp/,yes,yes,1,2
311,34.38862,132.4298,119.ダイハツ広島　観音店,docomo-cycle:00000400,7,bicycle_rental,Docomo Bike Share,ドコモ・バイクシェア,Q55533296,https://docomo-cycle.jp/,yes,yes,0,0
312,34.38098,132.49154,120.ファミリーマート広島東雲店,docomo-cycle:00000401,6,bicycle_rental,Docomo Bike Share,ドコモ・バイクシェア,Q55533296,https://docomo-cycle.jp/,yes,yes,0,0
313,34.35591,132.46347,121.ファミリーマート宇品神田店,docomo-cycle:00000402,5,bicycle_rental,Docomo Bike Share,ドコモ・バイクシェア,Q55533296,https://docomo-cycle.jp/,yes,yes,0,0
314,34.39544,132.44759,122.ファミリーマート猫屋町店,docomo-cycle:00000403,5,bicycle_rental,Docomo Bike Share,ドコモ・バイクシェア,Q55533296,https://docomo-cycle.jp/,yes,yes,0,0
315,34.38711,132.43128,123.ファミリーマート南観音三丁目店,docomo-cycle:00000404,6,bicycle_rental,Docomo Bike Share,ドコモ・バイクシェア,Q55533296,https://docomo-cycle.jp/,yes,yes,0,0
316,38.233175,140.877372,111.ローソン仙台鹿野一丁目店,docomo-cycle:00000406,8,bicycle_rental,Docomo Bike Share,ドコモ・バイクシェア,Q55533296,https://docomo-cycle.jp/,yes,yes,2,2
317,35.67684,139.77876,B2-16.ホテルサードニクス東京,docomo-cycle:00000407,4,bicycle_rental,Docomo Bike Share,ドコモ・バイクシェア,Q55533296,https://docomo-cycle.jp/,yes,yes,2,2
318,35.447638,139.626706,127.横浜市中央図書館,docomo-cycle:00000409,7,bicycle_rental,Docomo Bike Share,ドコモ・バイクシェア,Q55533296,https://docomo-cycle.jp/,yes,yes,1,1
319,35.633551,139.790468,H1-04.石と光の広場（国際展示場駅）,docomo-cycle:00000410,62,bicycle_rental,Docomo Bike Share,ドコモ・バイクシェア,Q55533296,https://docomo-cycle.jp/,yes,yes,1,2
320,35.74248,139.58715,T2-41.ローソン 練馬東大泉五丁目店,docomo-cycle:00000411,4,bicycle_rental,Docomo Bike Share,ドコモ・バイクシェア,Q55533296,https://docomo-cycle.jp/,yes,yes,2,1
321,34.674095,135.504396,B-25.クインテッサホテル大阪心斎橋,docomo-cycle:00000414,5,bicycle_rental,Docomo Bike Share,ドコモ・バイクシェア,Q55533296,https://docomo-cycle.jp/,yes,yes,0,0
322,34.625694,135.56282,U-02.大阪シティ信用金庫 平野支店,docomo-cycle:00000415,5,bicycle_rental,Docomo Bike Share,ドコモ・バイクシェア,Q55533296,https://docomo-cycle.jp/,yes,yes,0,0
323,35.187378,136.876628,127.名鉄協商パーキング上更,docomo-cycle:00000416,6,bicycle_rental,Docomo Bike Share,ドコモ・バイクシェア,Q55533296,https://docomo-cycle.jp/,yes,yes,1,0
324,35.164312,136.9185,129.新栄第7ロイヤルマンション,docomo-cycle:00000418,3,bicycle_rental,Docomo Bike Share,ドコモ・バイクシェア,Q55533296,https://docomo-cycle.jp/,yes,yes,0,1
325,37.91286,139.06081,21.新潟駅万代広場,docomo-cycle:00000419,10,bicycle_rental,Docomo Bike Share,ドコモ・バイクシェア,Q55533296,https://docomo-cycle.jp/,yes,yes,2,1
326,35.44626,139.64035,128.神奈川住空間,docomo-cycle:00000425,2,bicycle_rental,Docomo Bike Share,ドコモ・バイクシェア,Q55533296,https://docomo-cycle.jp/,yes,yes,1,1
327,38.23371,140.88746,115.長町一丁目駅,docomo-cycle:00000426,8,bicycle_rental,Docomo Bike Share,ドコモ・バイクシェア,Q55533296,https://docomo-cycle.jp/,yes,yes,2,2
328,35.18432,136.888748,125.ファミリーマート名古屋浅間町店,docomo-cycle:00000432,8,bicycle_rental,Docomo Bike Share,ドコモ・バイクシェア,Q55533296,https://docomo-cycle.jp/,yes,yes,1,1
329,35.159041,136.898093,126.ファミリーマート大須一丁目店,docomo-cycle:00000433,9,bicycle_rental,Docomo Bike Share,ドコモ・バイクシェア,Q55533296,https://docomo-cycle.jp/,yes,yes,0,1
330,35.153739,136.908691,131.ファミリーマートたちばな店,docomo-cycle:00000434,3,bicycle_rental,Docomo Bike Share,ドコモ・バイクシェア,Q55533296,https://docomo-cycle.jp/,yes,yes,0,1
331,35.645726,139.784496,H1-155.メブクス豊洲,docomo-cycle:00000435,23,bicycle_rental,Docomo Bike Share,ドコモ・バイクシェア,Q55533296,https://docomo-cycle.jp/,yes,yes,1,2
332,35.684003,139.794983,H1-161.昭文社制作本部ビル,docomo-cycle:00000436,7,bicycle_rental,Docomo Bike Share,ドコモ・バイクシェア,Q55533296,https://docomo-cycle.jp/,yes,yes,2,2
333,35.64816,139.737991,C4-11.ザ・パークハウス 三田ガーデン,docomo-cycle:00000437,10,bicycle_rental,Docomo Bike Share,ドコモ・バイクシェア,Q55533296,https://docomo-cycle.jp/,yes,yes,1,2
334,34.62229,135.526514,R-14.東住吉区役所,docomo-cycle:00000439,5,bicycle_rental,Docomo Bike Share,ドコモ・バイクシェア,Q55533296,https://docomo-cycle.jp/,yes,yes,0,0
335,34.602724,135.532175,R-15.東住吉区役所矢田出張所,docomo-cycle:00000440,10,bicycle_rental,Docomo Bike Share,ドコモ・バイクシェア,Q55533296,https://docomo-cycle.jp/,yes,yes,0,0
336,34.620324,135.527481,R-16.東住吉会館複合施設,docomo-cycle:00000441,3,bicycle_rental,Docomo Bike Share,ドコモ・バイクシェア,Q55533296,https://docomo-cycle.jp/,yes,yes,0,0
337,34.599032,135.526116,R-17.東住吉スポーツセンター,docomo-cycle:00000442,10,bicycle_rental,Docomo Bike Share,ドコモ・バイクシェア,Q55533296,https://docomo-cycle.jp/,yes,yes,0,0
338,34.615535,135.518748,R-18.長居公園　北口,docomo-cycle:00000443,10,bicycle_rental,Docomo Bike Share,ドコモ・バイクシェア,Q55533296,https://docomo-cycle.jp/,yes,yes,0,0
339,34.615127,135.526209,R-19.長居公園　北東口,docomo-cycle:00000444,10,bicycle_rental,Docomo Bike Share,ドコモ・バイクシェア,Q55533296,https://docomo-cycle.jp/,yes,yes,0,0
340,34.611217,135.517374,R-20.長居公園　駐輪場内,docomo-cycle:00000445,10,bicycle_rental,Docomo Bike Share,ドコモ・バイクシェア,Q55533296,https://docomo-cycle.jp/,yes,yes,0,0
341,34.609589,135.521454,R-21.長居公園　南口,docomo-cycle:00000446,5,bicycle_rental,Docomo Bike Share,ドコモ・バイクシェア,Q55533296,https://docomo-cycle.jp/,yes,yes,0,0
342,34.609763,135.526267,R-22.長居公園　南東口,docomo-cycle:00000447,8,bicycle_rental,Docomo Bike Share,ドコモ・バイクシェア,Q55533296,https://docomo-cycle.jp/,yes,yes,0,0
343,34.619912,135.532183,R-23.駒川商店街ココロホール,docomo-cycle:00000448,5,bicycle_rental,Docomo Bike Share,ドコモ・バイクシェア,Q55533296,https://docomo-cycle.jp/,yes,yes,0,0
344,35.17823,136.876331,133.愛知韓国人会館,docomo-cycle:00000449,5,bicycle_rental,Docomo Bike Share,ドコモ・バイクシェア,Q55533296,https://docomo-cycle.jp/,yes,yes,1,0
345,35.174156,136.900214,132.名鉄協商パーキング丸の内2丁目第8,docomo-cycle:00000451,5,bicycle_rental,Docomo Bike Share,ドコモ・バイクシェア,Q55533296,https://docomo-cycle.jp/,yes,yes,1,1
346,34.696321,135.485835,C-14.CASSIA福島駅前,docomo-cycle:00000452,6,bicycle_rental,Docomo Bike Share,ドコモ・バイクシェア,Q55533296,https://docomo-cycle.jp/,yes,yes,0,0
347,35.58223,139.72763,K1-119.シーンズ大森パークサイド,docomo-cycle:00000453,0,bicycle_rental,Docomo Bike Share,ドコモ・バイクシェア,Q55533296,https://docomo-cycle.jp/,yes,yes,1,2
348,35.169544,136.889503,135.ファミリーマート名駅柳橋店,docomo-cycle:00000454,6,bicycle_rental,Docomo Bike Share,ドコモ・バイクシェア,Q55533296,https://docomo-cycle.jp/,yes,yes,1,1
349,35.183047,136.909761,136.ファミリーマート明和高校前店,docomo-cycle:00000455,4,bicycle_rental,Docomo Bike Share,ドコモ・バイクシェア,Q55533296,https://docomo-cycle.jp/,yes,yes,1,1
350,35.688735,139.692249,D6-29.都庁第二本庁舎前,docomo-cycle:00000458,14,bicycle_rental,Docomo Bike Share,ドコモ・バイクシェア,Q55533296,https://docomo-cycle.jp/,yes,yes,2,1
351,35.6897,139.694823,D6-30.京王プラザホテル,docomo-cycle:00000459,7,bicycle_rental,Docomo Bike Share,ドコモ・バイクシェア,Q55533296,https://docomo-cycle.jp/,yes,yes,2,1
352,35.6866,139.70014,M5-17.小田急サザンタワー,docomo-cycle:00000461,8,bicycle_rental,Docomo Bike Share,ドコモ・バイクシェア,Q55533296,https://docomo-cycle.jp/,yes,yes,2,1
353,34.615485,135.520256,R-24.山坂団地,docomo-cycle:00000462,5,bicycle_rental,Docomo Bike Share,ドコモ・バイクシェア,Q55533296,https://docomo-cycle.jp/,yes,yes,0,0
354,35.44749,139.63387,129.ニッセイ横浜尾上町ビル,docomo-cycle:00000463,4,bicycle_rental,Docomo Bike Share,ドコモ・バイクシェア,Q55533296,https://docomo-cycle.jp/,yes,yes,1,1
355,35.160259,136.893584,137.自由自在ＯＳＵ,docomo-cycle:00000464,4,bicycle_rental,Docomo Bike Share,ドコモ・バイクシェア,Q55533296,https://docomo-cycle.jp/,yes,yes,0,1
356,35.167547,136.879824,138.相鉄フレッサイン名古屋駅新幹線口,docomo-cycle:00000465,8,bicycle_rental,Docomo Bike Share,ドコモ・バイクシェア,Q55533296,https://docomo-cycle.jp/,yes,yes,0,0
357,35.176899,136.927635,139.名鉄協商パーキング筒井2丁目第3,docomo-cycle:00000466,5,bicycle_rental,Docomo Bike Share,ドコモ・バイクシェア,Q55533296,https://docomo-cycle.jp/,yes,yes,1,1
358,35.707968,139.663519,N3-08.中野区役所(西側),docomo-cycle:00000467,5,bicycle_rental,Docomo Bike Share,ドコモ・バイクシェア,Q55533296,https://docomo-cycle.jp/,yes,yes,2,1
359,35.708259,139.663829,N3-09.中野区役所(北側),docomo-cycle:00000468,5,bicycle_rental,Docomo Bike Share,ドコモ・バイクシェア,Q55533296,https://docomo-cycle.jp/,yes,yes,2,1
360,35.702659,139.662563,N3-10.エーエスホームズⅡ駐車場,docomo-cycle:00000469,6,bicycle_rental,Docomo Bike Share,ドコモ・バイクシェア,Q55533296,https://docomo-cycle.jp/,yes,yes,2,1
361,35.634019,139.719749,I1-91.アクロス目黒タワー,docomo-cycle:00000470,8,bicycle_rental,Docomo Bike Share,ドコモ・バイクシェア,Q55533296,https://docomo-cycle.jp/,yes,yes,1,2
362,34.619819,135.53802,R-25.マックスバリュ駒川中野店,docomo-cycle:00000473,6,bicycle_rental,Docomo Bike Share,ドコモ・バイクシェア,Q55533296,https://docomo-cycle.jp/,yes,yes,0,0
363,35.178861,136.890162,140.ディアレイシャス浅間町,docomo-cycle:00000475,5,bicycle_rental,Docomo Bike Share,ドコモ・バイクシェア,Q55533296,https://docomo-cycle.jp/,yes,yes,1,1
364,38.25802,140.86479,112.La Douceur片平,docomo-cycle:00000477,7,bicycle_rental,Docomo Bike Share,ドコモ・バイクシェア,Q55533296,https://docomo-cycle.jp/,yes,yes,2,2
365,35.462579,139.624539,130.横濱ゲートタワー,docomo-cycle:00000479,7,bicycle_rental,Docomo Bike Share,ドコモ・バイクシェア,Q55533296,https://docomo-cycle.jp/,yes,yes,1,1
366,35.67518,139.77364,B2-17.アーバネックス八丁堀,docomo-cycle:00000480,3,bicycle_rental,Docomo Bike Share,ドコモ・バイクシェア,Q55533296,https://docomo-cycle.jp/,yes,yes,2,2
367,35.67464,139.67876,M6-16.パールマンション,docomo-cycle:00000482,3,bicycle_rental,Docomo Bike Share,ドコモ・バイクシェア,Q55533296,https://docomo-cycle.jp/,yes,yes,2,1
368,35.163477,136.922984,141.ファミリーマート名古屋新栄店,docomo-cycle:00000483,3,bicycle_rental,Docomo Bike Share,ドコモ・バイクシェア,Q55533296,https://docomo-cycle.jp/,yes,yes,0,1
369,38.242667,140.908743,116.ドコモショップ宮城の萩大通り店,docomo-cycle:00000484,12,bicycle_rental,Docomo Bike Share,ドコモ・バイクシェア,Q55533296,https://docomo-cycle.jp/,yes,yes,2,2
370,35.644798,139.752697,C5-43.オアーゼ芝浦MJビル,docomo-cycle:00000485,6,bicycle_rental,Docomo Bike Share,ドコモ・バイクシェア,Q55533296,https://docomo-cycle.jp/,yes,yes,1,2
371,34.706332,135.487728,A-37.東通ビル,docomo-cycle:00000486,3,bicycle_rental,Docomo Bike Share,ドコモ・バイクシェア,Q55533296,https://docomo-cycle.jp/,yes,yes,0,0
372,35.634441,139.687186,J1-44.五本木2丁目,docomo-cycle:00000487,8,bicycle_rental,Docomo Bike Share,ドコモ・バイクシェア,Q55533296,https://docomo-cycle.jp/,yes,yes,1,1
373,35.690958,139.759876,A2-27.丸紅ビル,docomo-cycle:00000490,7,bicycle_rental,Docomo Bike Share,ドコモ・バイクシェア,Q55533296,https://docomo-cycle.jp/,yes,yes,2,2
374,35.675739,139.763712,A4-14.東京国際フォーラム（有楽町駅ガード側）,docomo-cycle:00000491,8,bicycle_rental,Docomo Bike Share,ドコモ・バイクシェア,Q55533296,https://docomo-cycle.jp/,yes,yes,2,2
375,35.690657,139.73255,D2-17.genten市ヶ谷店,docomo-cycle:00000492,10,bicycle_rental,Docomo Bike Share,ドコモ・バイクシェア,Q55533296,https://docomo-cycle.jp/,yes,yes,2,2
376,35.70328,139.62981,O4-01.阿佐ヶ谷南公園,docomo-cycle:00000498,3,bicycle_rental,Docomo Bike Share,ドコモ・バイクシェア,Q55533296,https://docomo-cycle.jp/,yes,yes,2,1
377,34.705161,135.51075,A-38.北区役所,docomo-cycle:00000499,10,bicycle_rental,Docomo Bike Share,ドコモ・バイクシェア,Q55533296,https://docomo-cycle.jp/,yes,yes,0,0
378,34.71558,135.508612,A-39.大淀コミュニティセンター,docomo-cycle:00000516,9,bicycle_rental,Docomo Bike Share,ドコモ・バイクシェア,Q55533296,https://docomo-cycle.jp/,yes,yes,0,0
379,34.697616,135.491634,A-40.西梅田公園,docomo-cycle:00000517,13,bicycle_rental,Docomo Bike Share,ドコモ・バイクシェア,Q55533296,https://docomo-cycle.jp/,yes,yes,0,0
380,34.695202,135.498814,A-41.堂島公園,docomo-cycle:00000518,5,bicycle_rental,Docomo Bike Share,ドコモ・バイクシェア,Q55533296,https://docomo-cycle.jp/,yes,yes,0,0
381,34.626514,135.53111,R-26.今川駅,docomo-cycle:00000523,5,bicycle_rental,Docomo Bike Share,ドコモ・バイクシェア,Q55533296,https://docomo-cycle.jp/,yes,yes,0,0
382,34.605222,135.532747,R-27.矢田駅,docomo-cycle:00000524,5,bicycle_rental,Docomo Bike Share,ドコモ・バイクシェア,Q55533296,https://docomo-cycle.jp/,yes,yes,0,0
383,35.7266,139.62948,N1-05.大野ハイツ,docomo-cycle:00000535,5,bicycle_rental,Docomo Bike Share,ドコモ・バイクシェア,Q55533296,https://docomo-cycle.jp/,yes,yes,2,1
384,35.711501,139.672761,N3-11.上高田区民活動センター,docomo-cycle:00000537,5,bicycle_rental,Docomo Bike Share,ドコモ・バイクシェア,Q55533296,https://docomo-cycle.jp/,yes,yes,2,1
385,35.714292,139.663327,N2-07.新井区民活動センター,docomo-cycle:00000538,4,bicycle_rental,Docomo Bike Share,ドコモ・バイクシェア,Q55533296,https://docomo-cycle.jp/,yes,yes,2,1
386,35.713562,139.649075,N1-06.大和区民活動センター,docomo-cycle:00000539,5,bicycle_rental,Docomo Bike Share,ドコモ・バイクシェア,Q55533296,https://docomo-cycle.jp/,yes,yes,2,1
387,35.702414,139.667327,N3-12.桃園区民活動センター,docomo-cycle:00000541,2,bicycle_rental,Docomo Bike Share,ドコモ・バイクシェア,Q55533296,https://docomo-cycle.jp/,yes,yes,2,1
388,34.695205,135.494106,A-21.中央電気倶楽部,docomo-cycle:00000542,29,bicycle_rental,Docomo Bike Share,ドコモ・バイクシェア,Q55533296,https://docomo-cycle.jp/,yes,yes,0,0
389,34.669815,135.498586,B-16.グランドサウナ心斎橋,docomo-cycle:00000543,5,bicycle_rental,Docomo Bike Share,ドコモ・バイクシェア,Q55533296,https://docomo-cycle.jp/,yes,yes,0,0
390,35.170365,136.893986,142.ＤＰスクエア錦,docomo-cycle:00000544,7,bicycle_rental,Docomo Bike Share,ドコモ・バイクシェア,Q55533296,https://docomo-cycle.jp/,yes,yes,1,1
391,34.37228,132.43495,124.マックスバリュ江波店,docomo-cycle:00000545,10,bicycle_rental,Docomo Bike Share,ドコモ・バイクシェア,Q55533296,https://docomo-cycle.jp/,yes,yes,0,0
392,35.560125,139.71569,K1-120.蒲田駅消費者生活センター横自転車駐車場 屋上部,docomo-cycle:00000547,5,bicycle_rental,Docomo Bike Share,ドコモ・バイクシェア,Q55533296,https://docomo-cycle.jp/,yes,yes,1,2
393,35.655135,139.744449,C2-24.intheHood 東麻布,docomo-cycle:00000548,5,bicycle_rental,Docomo Bike Share,ドコモ・バイクシェア,Q55533296,https://docomo-cycle.jp/,yes,yes,1,2
394,35.644794,139.755688,C5-45.パークアクシス芝浦キャナル,docomo-cycle:00000549,9,bicycle_rental,Docomo Bike Share,ドコモ・バイクシェア,Q55533296,https://docomo-cycle.jp/,yes,yes,1,2
395,36.10269,139.795435,道の駅さかい,docomo-cycle:00000550,5,bicycle_rental,Docomo Bike Share,ドコモ・バイクシェア,Q55533296,https://docomo-cycle.jp/,yes,yes,2,2
396,36.120995,139.810208,境町高速バスターミナル（東京駅）,docomo-cycle:00000558,8,bicycle_rental,Docomo Bike Share,ドコモ・バイクシェア,Q55533296,https://docomo-cycle.jp/,yes,yes,2,2
397,36.129431,139.80863,ホテルスタンバイリーグさかい,docomo-cycle:00000559,5,bicycle_rental,Docomo Bike Share,ドコモ・バイクシェア,Q55533296,https://docomo-cycle.jp/,yes,yes,2,2
398,36.108412,139.795149,境町役場,docomo-cycle:00000560,5,bicycle_rental,Docomo Bike Share,ドコモ・バイクシェア,Q55533296,https://docomo-cycle.jp/,yes,yes,2,2
399,36.118364,139.798543,さかい子育て支援センターS-WORK＋KIDS,docomo-cycle:00000561,5,bicycle_rental,Docomo Bike Share,ドコモ・バイクシェア,Q55533296,https://docomo-cycle.jp/,yes,yes,2,2
400,36.104882,139.790187,河岸の駅さかい,docomo-cycle:00000562,4,bicycle_rental,Docomo Bike Share,ドコモ・バイクシェア,Q55533296,https://docomo-cycle.jp/,yes,yes,2,2
401,35.192953,136.938285,146.名鉄協商パーキング大曽根第11,docomo-cycle:00000563,4,bicycle_rental,Docomo Bike Share,ドコモ・バイクシェア,Q55533296,https://docomo-cycle.jp/,yes,yes,1,1
402,35.173935,136.918587,147.名鉄協商パーキング東桜第2,docomo-cycle:00000564,3,bicycle_rental,Docomo Bike Share,ドコモ・バイクシェア,Q55533296,https://docomo-cycle.jp/,yes,yes,1,1
403,35.68802,139.78112,B1-26.intheHood 日本橋,docomo-cycle:00000565,2,bicycle_rental,Docomo Bike Share,ドコモ・バイクシェア,Q55533296,https://docomo-cycle.jp/,yes,yes,2,2
404,35.595873,139.75134,I1-92.中央海浜公園前交差点（北側）,docomo-cycle:00000566,10,bicycle_rental,Docomo Bike Share,ドコモ・バイクシェア,Q55533296,https://docomo-cycle.jp/,yes,yes,1,2
405,35.595498,139.750654,I1-93.中央海浜公園前交差点（南側）,docomo-cycle:00000567,5,bicycle_rental,Docomo Bike Share,ドコモ・バイクシェア,Q55533296,https://docomo-cycle.jp/,yes,yes,1,2
406,35.174062,136.896308,148.丸の内Ｏｎｅビルディング,docomo-cycle:00000569,4,bicycle_rental,Docomo Bike Share,ドコモ・バイクシェア,Q55533296,https://docomo-cycle.jp/,yes,yes,1,1
407,34.682648,135.505842,B-38. 辰野南本町ビル,docomo-cycle:00000571,2,bicycle_rental,Docomo Bike Share,ドコモ・バイクシェア,Q55533296,https://docomo-cycle.jp/,yes,yes,0,0
408,34.680702,135.50337,B-55. 船場エクセルビル,docomo-cycle:00000572,8,bicycle_rental,Docomo Bike Share,ドコモ・バイクシェア,Q55533296,https://docomo-cycle.jp/,yes,yes,0,0
409,34.680476,135.502578,B-56. Tパーク久太郎西,docomo-cycle:00000573,6,bicycle_rental,Docomo Bike Share,ドコモ・バイクシェア,Q55533296,https://docomo-cycle.jp/,yes,yes,0,0
410,34.679082,135.515149,B-57. Tパーク内久宝寺,docomo-cycle:00000574,8,bicycle_rental,Docomo Bike Share,ドコモ・バイクシェア,Q55533296,https://docomo-cycle.jp/,yes,yes,0,0
411,35.161018,136.895786,145.リシュドール大須,docomo-cycle:00000577,5,bicycle_rental,Docomo Bike Share,ドコモ・バイクシェア,Q55533296,https://docomo-cycle.jp/,yes,yes,0,1
412,35.163661,136.94054,149.グレンパーク今池南EAST,docomo-cycle:00000578,6,bicycle_rental,Docomo Bike Share,ドコモ・バイクシェア,Q55533296,https://docomo-cycle.jp/,yes,yes,0,1
413,35.148852,136.898761,151.ファミリーマート古渡町店,docomo-cycle:00000580,5,bicycle_rental,Docomo Bike Share,ドコモ・バイクシェア,Q55533296,https://docomo-cycle.jp/,yes,yes,0,1
414,35.181815,136.887906,144.サンモール浅間,docomo-cycle:00000581,4,bicycle_rental,Docomo Bike Share,ドコモ・バイクシェア,Q55533296,https://docomo-cycle.jp/,yes,yes,1,1
415,34.682321,135.506352,B-31.イケマン　センバ店,docomo-cycle:00000587,2,bicycle_rental,Docomo Bike Share,ドコモ・バイクシェア,Q55533296,https://docomo-cycle.jp/,yes,yes,0,0
416,35.72077,139.6045,O1-01.上瀬戸公園,docomo-cycle:00000591,5,bicycle_rental,Docomo Bike Share,ドコモ・バイクシェア,Q55533296,https://docomo-cycle.jp/,yes,yes,2,1
417,35.72424,139.61431,O1-02.井荻南地下自転車駐車場,docomo-cycle:00000592,14,bicycle_rental,Docomo Bike Share,ドコモ・バイクシェア,Q55533296,https://docomo-cycle.jp/,yes,yes,2,1
418,35.72489,139.62383,O1-03.LUCKY HOUSE,docomo-cycle:00000593,4,bicycle_rental,Docomo Bike Share,ドコモ・バイクシェア,Q55533296,https://docomo-cycle.jp/,yes,yes,2,1
419,35.70535,139.61497,O2-01.サカエフラット荻窪,docomo-cycle:00000594,12,bicycle_rental,Docomo Bike Share,ドコモ・バイクシェア,Q55533296,https://docomo-cycle.jp/,yes,yes,2,1
420,35.69575,139.62065,O3-01.西田公園,docomo-cycle:00000595,7,bicycle_rental,Docomo Bike Share,ドコモ・バイクシェア,Q55533296,https://docomo-cycle.jp/,yes,yes,2,1
421,35.71355,139.6199,O3-02.アートメゾン荻窪,docomo-cycle:00000596,8,bicycle_rental,Docomo Bike Share,ドコモ・バイクシェア,Q55533296,https://docomo-cycle.jp/,yes,yes,2,1
422,35.71013,139.61194,O3-03.桃井1丁目5番地,docomo-cycle:00000597,8,bicycle_rental,Docomo Bike Share,ドコモ・バイクシェア,Q55533296,https://docomo-cycle.jp/,yes,yes,2,1
423,35.69638,139.63482,O4-02.成宗さくら公園,docomo-cycle:00000598,4,bicycle_rental,Docomo Bike Share,ドコモ・バイクシェア,Q55533296,https://docomo-cycle.jp/,yes,yes,2,1
424,35.71038,139.64519,O5-01.朝霞ハイツ,docomo-cycle:00000599,12,bicycle_rental,Docomo Bike Share,ドコモ・バイクシェア,Q55533296,https://docomo-cycle.jp/,yes,yes,2,1
425,35.67912,139.61074,O6-01.高井戸みどり公園,docomo-cycle:00000601,7,bicycle_rental,Docomo Bike Share,ドコモ・バイクシェア,Q55533296,https://docomo-cycle.jp/,yes,yes,2,1
426,35.68296,139.60861,O6-02.富士見ヶ丘南自転車駐車場,docomo-cycle:00000602,8,bicycle_rental,Docomo Bike Share,ドコモ・バイクシェア,Q55533296,https://docomo-cycle.jp/,yes,yes,2,1
427,35.68073,139.62803,O6-03.みなみ荘,docomo-cycle:00000603,9,bicycle_rental,Docomo Bike Share,ドコモ・バイクシェア,Q55533296,https://docomo-cycle.jp/,yes,yes,2,1
428,35.67834,139.62711,O6-04.柏の宮公園,docomo-cycle:00000604,5,bicycle_rental,Docomo Bike Share,ドコモ・バイクシェア,Q55533296,https://docomo-cycle.jp/,yes,yes,2,1
429,35.67753,139.63667,O7-01.西永福公園,docomo-cycle:00000605,5,bicycle_rental,Docomo Bike Share,ドコモ・バイクシェア,Q55533296,https://docomo-cycle.jp/,yes,yes,2,1
430,35.67121,139.64145,O7-02.永福中央公園,docomo-cycle:00000606,6,bicycle_rental,Docomo Bike Share,ドコモ・バイクシェア,Q55533296,https://docomo-cycle.jp/,yes,yes,2,1
431,35.67156,139.64609,O7-03.永福町西幸モータープール東,docomo-cycle:00000607,11,bicycle_rental,Docomo Bike Share,ドコモ・バイクシェア,Q55533296,https://docomo-cycle.jp/,yes,yes,2,1
432,35.67161,139.64527,O7-04.永福町西幸モータープール西,docomo-cycle:00000608,8,bicycle_rental,Docomo Bike Share,ドコモ・バイクシェア,Q55533296,https://docomo-cycle.jp/,yes,yes,2,1
433,35.139722,136.91022,152.名鉄協商パーキング池内町,docomo-cycle:00000609,4,bicycle_rental,Docomo Bike Share,ドコモ・バイクシェア,Q55533296,https://docomo-cycle.jp/,yes,yes,0,1
434,35.63767,139.7045,J1-45.プラウド中目黒,docomo-cycle:00000611,4,bicycle_rental,Docomo Bike Share,ドコモ・バイクシェア,Q55533296,https://docomo-cycle.jp/,yes,yes,1,1
435,35.632735,139.683899,J1-46.五本木西みどり街かど公園,docomo-cycle:00000612,4,bicycle_rental,Docomo Bike Share,ドコモ・バイクシェア,Q55533296,https://docomo-cycle.jp/,yes,yes,1,1
436,35.61847,139.70019,J1-47.本町みなみ街かど公園,docomo-cycle:00000613,17,bicycle_rental,Docomo Bike Share,ドコモ・バイクシェア,Q55533296,https://docomo-cycle.jp/,yes,yes,1,1
437,26.097767,127.677902,15.琉球ガラス村,docomo-cycle:00000615,3,bicycle_rental,Docomo Bike Share,ドコモ・バイクシェア,Q55533296,https://docomo-cycle.jp/,yes,yes,0,0
438,34.616758,135.525257,R-28.南田辺住宅,docomo-cycle:00000617,9,bicycle_rental,Docomo Bike Share,ドコモ・バイクシェア,Q55533296,https://docomo-cycle.jp/,yes,yes,0,0
439,35.64372,139.68777,J1-48.グランドエクセル祐天寺,docomo-cycle:00000618,7,bicycle_rental,Docomo Bike Share,ドコモ・バイクシェア,Q55533296,https://docomo-cycle.jp/,yes,yes,1,1
440,34.616164,135.533139,R-29.針中野駅,docomo-cycle:00000619,5,bicycle_rental,Docomo Bike Share,ドコモ・バイクシェア,Q55533296,https://docomo-cycle.jp/,yes,yes,0,0
441,35.175432,136.911707,157.名鉄協商パーキング　泉1丁目第6,docomo-cycle:00000622,6,bicycle_rental,Docomo Bike Share,ドコモ・バイクシェア,Q55533296,https://docomo-cycle.jp/,yes,yes,1,1
442,35.468676,139.625838,131.横浜みなと第一生命ビル,docomo-cycle:00000623,9,bicycle_rental,Docomo Bike Share,ドコモ・バイクシェア,Q55533296,https://docomo-cycle.jp/,yes,yes,1,1
443,34.38287,132.48445,125. ファミリーマート東雲本町店,docomo-cycle:00000624,5,bicycle_rental,Docomo Bike Share,ドコモ・バイクシェア,Q55533296,https://docomo-cycle.jp/,yes,yes,0,0
444,35.186386,136.944916,154.イオンモールナゴヤドーム前１,docomo-cycle:00000625,7,bicycle_rental,Docomo Bike Share,ドコモ・バイクシェア,Q55533296,https://docomo-cycle.jp/,yes,yes,1,1
445,34.3979,132.428764,126. もみじ銀行己斐本町ATM,docomo-cycle:00000626,19,bicycle_rental,Docomo Bike Share,ドコモ・バイクシェア,Q55533296,https://docomo-cycle.jp/,yes,yes,0,0
446,35.18829,136.944965,155.イオンモールナゴヤドーム前２,docomo-cycle:00000627,5,bicycle_rental,Docomo Bike Share,ドコモ・バイクシェア,Q55533296,https://docomo-cycle.jp/,yes,yes,1,1
447,35.187779,136.942942,156.イオンモールナゴヤドーム前3,docomo-cycle:00000628,3,bicycle_rental,Docomo Bike Share,ドコモ・バイクシェア,Q55533296,https://docomo-cycle.jp/,yes,yes,1,1
448,35.66616,139.70458,M4-13.J-cube,docomo-cycle:00000629,1,bicycle_rental,Docomo Bike Share,ドコモ・バイクシェア,Q55533296,https://docomo-cycle.jp/,yes,yes,1,1
449,35.163802,136.940147,150.グレンパーク今池南WEST,docomo-cycle:00000630,3,bicycle_rental,Docomo Bike Share,ドコモ・バイクシェア,Q55533296,https://docomo-cycle.jp/,yes,yes,0,1
450,35.686389,139.769237,A4-15.TOKIWAブリッジ,docomo-cycle:00000631,8,bicycle_rental,Docomo Bike Share,ドコモ・バイクシェア,Q55533296,https://docomo-cycle.jp/,yes,yes,2,2
451,34.39552,132.47295,127.広島駅南口第二駐輪場(仮設),docomo-cycle:00000632,12,bicycle_rental,Docomo Bike Share,ドコモ・バイクシェア,Q55533296,https://docomo-cycle.jp/,yes,yes,0,0
452,35.728893,139.670119,N2-08.江古田区民活動センター,docomo-cycle:00000633,3,bicycle_rental,Docomo Bike Share,ドコモ・バイクシェア,Q55533296,https://docomo-cycle.jp/,yes,yes,2,1
453,35.66297,139.7833,B4-24.ミュプレ月島,docomo-cycle:00000635,7,bicycle_rental,Docomo Bike Share,ドコモ・バイクシェア,Q55533296,https://docomo-cycle.jp/,yes,yes,1,2
454,35.16969,136.924072,158.ファミリーマート名古屋新栄二丁目店,docomo-cycle:00000638,3,bicycle_rental,Docomo Bike Share,ドコモ・バイクシェア,Q55533296,https://docomo-cycle.jp/,yes,yes,1,1
455,35.162506,136.93874,159.ファミリーマート千種今池南店,docomo-cycle:00000640,3,bicycle_rental,Docomo Bike Share,ドコモ・バイクシェア,Q55533296,https://docomo-cycle.jp/,yes,yes,0,1
456,35.150874,136.910275,153.CSP NAGOYA,docomo-cycle:00000641,5,bicycle_rental,Docomo Bike Share,ドコモ・バイクシェア,Q55533296,https://docomo-cycle.jp/,yes,yes,0,1
457,35.540579,139.754506,K1-121.東京広域ポート（川崎LiSE）,docomo-cycle:00000643,9,bicycle_rental,Docomo Bike Share,ドコモ・バイクシェア,Q55533296,https://docomo-cycle.jp/,yes,yes,1,2
458,35.581347,139.662265,K1-122.東急新丸子駅駐輪場,docomo-cycle:00000644,12,bicycle_rental,Docomo Bike Share,ドコモ・バイクシェア,Q55533296,https://docomo-cycle.jp/,yes,yes,1,1
459,35.577794,139.660751,K1-123.東急新丸子駅（東）駐輪場,docomo-cycle:00000645,10,bicycle_rental,Docomo Bike Share,ドコモ・バイクシェア,Q55533296,https://docomo-cycle.jp/,yes,yes,1,1
460,35.700052,139.673715,N3-13.中部すこやか福祉センター,docomo-cycle:00000647,4,bicycle_rental,Docomo Bike Share,ドコモ・バイクシェア,Q55533296,https://docomo-cycle.jp/,yes,yes,2,1
461,35.713227,139.680966,N3-14.ヴィラソンサ落合,docomo-cycle:00000648,5,bicycle_rental,Docomo Bike Share,ドコモ・バイクシェア,Q55533296,https://docomo-cycle.jp/,yes,yes,2,1
462,35.70781,139.732227,E2-13.デルックス文京神楽坂,docomo-cycle:00000649,4,bicycle_rental,Docomo Bike Share,ドコモ・バイクシェア,Q55533296,https://docomo-cycle.jp/,yes,yes,2,2
463,35.4389,139.64037,132.デュフレ横浜石川町,docomo-cycle:00000650,3,bicycle_rental,Docomo Bike Share,ドコモ・バイクシェア,Q55533296,https://docomo-cycle.jp/,yes,yes,1,1
464,35.564161,139.695187,K1-124.矢口2丁目,docomo-cycle:00000652,5,bicycle_rental,Docomo Bike Share,ドコモ・バイクシェア,Q55533296,https://docomo-cycle.jp/,yes,yes,1,1
465,35.165312,136.864981,161.扇港電機,docomo-cycle:00000655,5,bicycle_rental,Docomo Bike Share,ドコモ・バイクシェア,Q55533296,https://docomo-cycle.jp/,yes,yes,0,0
466,35.16552,136.917535,162.名鉄協商パーキング新栄第２,docomo-cycle:00000656,2,bicycle_rental,Docomo Bike Share,ドコモ・バイクシェア,Q55533296,https://docomo-cycle.jp/,yes,yes,0,1
467,34.707725,135.489549,A-10.大阪ふくちぁん餃子大淀店,docomo-cycle:00000658,10,bicycle_rental,Docomo Bike Share,ドコモ・バイクシェア,Q55533296,https://docomo-cycle.jp/,yes,yes,0,0
468,34.61077,135.514093,R-30.地下鉄長居駅地下駐輪場,docomo-cycle:00000660,7,bicycle_rental,Docomo Bike Share,ドコモ・バイクシェア,Q55533296,https://docomo-cycle.jp/,yes,yes,0,0
469,34.628048,135.52579,R-31.地下鉄田辺駅,docomo-cycle:00000661,11,bicycle_rental,Docomo Bike Share,ドコモ・バイクシェア,Q55533296,https://docomo-cycle.jp/,yes,yes,0,0
470,35.687531,139.60439,O6-05.コージーコート久我山,docomo-cycle:00000662,5,bicycle_rental,Docomo Bike Share,ドコモ・バイクシェア,Q55533296,https://docomo-cycle.jp/,yes,yes,2,1
471,35.680849,139.65626,O7-05.ジーベック方南町,docomo-cycle:00000666,4,bicycle_rental,Docomo Bike Share,ドコモ・バイクシェア,Q55533296,https://docomo-cycle.jp/,yes,yes,2,1
472,35.638864,139.696568,J1-49.伊勢脇公園,docomo-cycle:00000667,5,bicycle_rental,Docomo Bike Share,ドコモ・バイクシェア,Q55533296,https://docomo-cycle.jp/,yes,yes,1,1
473,35.609958,139.684087,J1-50.大岡山公園,docomo-cycle:00000668,4,bicycle_rental,Docomo Bike Share,ドコモ・バイクシェア,Q55533296,https://docomo-cycle.jp/,yes,yes,1,1
474,35.650627,139.687228,J1-51.池尻大橋駅東口駐輪場,docomo-cycle:00000669,3,bicycle_rental,Docomo Bike Share,ドコモ・バイクシェア,Q55533296,https://docomo-cycle.jp/,yes,yes,1,1
475,35.171655,136.891745,160.名駅東ビル,docomo-cycle:00000670,4,bicycle_rental,Docomo Bike Share,ドコモ・バイクシェア,Q55533296,https://docomo-cycle.jp/,yes,yes,1,1
476,35.17128,136.887659,165.名古屋ビルディング桜館,docomo-cycle:00000671,5,bicycle_rental,Docomo Bike Share,ドコモ・バイクシェア,Q55533296,https://docomo-cycle.jp/,yes,yes,1,1
477,35.199273,136.938829,167.まんが喫茶 ドリーム北山,docomo-cycle:00000672,4,bicycle_rental,Docomo Bike Share,ドコモ・バイクシェア,Q55533296,https://docomo-cycle.jp/,yes,yes,1,1
478,35.180024,136.896764,168.中日新聞社北館,docomo-cycle:00000673,8,bicycle_rental,Docomo Bike Share,ドコモ・バイクシェア,Q55533296,https://docomo-cycle.jp/,yes,yes,1,1
479,35.163163,136.884587,166.マーケットスクエアささしま,docomo-cycle:00000674,5,bicycle_rental,Docomo Bike Share,ドコモ・バイクシェア,Q55533296,https://docomo-cycle.jp/,yes,yes,0,1
480,34.650198,135.501865,E-11.OMO7大阪 by 星野リゾート,docomo-cycle:00000675,38,bicycle_rental,Docomo Bike Share,ドコモ・バイクシェア,Q55533296,https://docomo-cycle.jp/,yes,yes,0,0
481,34.686367,135.486327,D-04.ラドゥセール中之島,docomo-cycle:00000677,9,bicycle_rental,Docomo Bike Share,ドコモ・バイクシェア,Q55533296,https://docomo-cycle.jp/,yes,yes,0,0
482,35.125854,136.913644,024.名鉄協商パーキング神宮前駅東街区立体駐車場,docomo-cycle:00000678,5,bicycle_rental,Docomo Bike Share,ドコモ・バイクシェア,Q55533296,https://docomo-cycle.jp/,yes,yes,0,1
483,35.74553,139.608939,T2-42.石神井公園駅北第二自転車駐車場,docomo-cycle:00000679,5,bicycle_rental,Docomo Bike Share,ドコモ・バイクシェア,Q55533296,https://docomo-cycle.jp/,yes,yes,2,1
484,35.7547,139.5871,T2-43.学園通り自転車駐車場,docomo-cycle:00000680,8,bicycle_rental,Docomo Bike Share,ドコモ・バイクシェア,Q55533296,https://docomo-cycle.jp/,yes,yes,2,1
485,35.75372,139.584332,T2-44.中島橋自転車駐車場,docomo-cycle:00000681,5,bicycle_rental,Docomo Bike Share,ドコモ・バイクシェア,Q55533296,https://docomo-cycle.jp/,yes,yes,2,1
486,35.771068,139.586798,T2-45.風致地区バス停第三自転車駐車場,docomo-cycle:00000682,7,bicycle_rental,Docomo Bike Share,ドコモ・バイクシェア,Q55533296,https://docomo-cycle.jp/,yes,yes,2,1
487,35.766491,139.587232,T2-46.大泉郵便局バス停自転車駐車場,docomo-cycle:00000683,9,bicycle_rental,Docomo Bike Share,ドコモ・バイクシェア,Q55533296,https://docomo-cycle.jp/,yes,yes,2,1
488,35.726523,139.5905,T2-47.上石神井駅北第二自転車駐車場,docomo-cycle:00000684,9,bicycle_rental,Docomo Bike Share,ドコモ・バイクシェア,Q55533296,https://docomo-cycle.jp/,yes,yes,2,1
489,35.726064,139.578015,T2-48.武蔵関駅南第二自転車駐車場,docomo-cycle:00000685,4,bicycle_rental,Docomo Bike Share,ドコモ・バイクシェア,Q55533296,https://docomo-cycle.jp/,yes,yes,2,1
490,35.751438,139.641265,T3-01.練馬春日町駅自転車駐車場,docomo-cycle:00000686,7,bicycle_rental,Docomo Bike Share,ドコモ・バイクシェア,Q55533296,https://docomo-cycle.jp/,yes,yes,2,1
491,35.756846,139.652154,T3-02.早宮第二自転車駐車場,docomo-cycle:00000687,11,bicycle_rental,Docomo Bike Share,ドコモ・バイクシェア,Q55533296,https://docomo-cycle.jp/,yes,yes,2,1
492,35.740378,139.667502,T3-03.新桜台駅自転車駐車場,docomo-cycle:00000688,7,bicycle_rental,Docomo Bike Share,ドコモ・バイクシェア,Q55533296,https://docomo-cycle.jp/,yes,yes,2,1
493,35.462961,139.632213,133.プライムコーストみなとみらい,docomo-cycle:00000689,14,bicycle_rental,Docomo Bike Share,ドコモ・バイクシェア,Q55533296,https://docomo-cycle.jp/,yes,yes,1,1
494,35.05069,135.995852,【他ポートへの返却不可】02.スマート駅リンくん守山,docomo-cycle:00000690,10,bicycle_rental,Docomo Bike Share,ドコモ・バイクシェア,Q55533296,https://docomo-cycle.jp/,yes,yes,0,0
495,35.022376,135.961675,【他ポートへの返却不可】03.スマート駅リンくん草津,docomo-cycle:00000691,8,bicycle_rental,Docomo Bike Share,ドコモ・バイクシェア,Q55533296,https://docomo-cycle.jp/,yes,yes,0,0
496,34.706463,135.623379,【他ポートへの返却不可】04.スマート駅リンくん住道,docomo-cycle:00000692,8,bicycle_rental,Docomo Bike Share,ドコモ・バイクシェア,Q55533296,https://docomo-cycle.jp/,yes,yes,0,0
497,34.617193,135.597487,【他ポートへの返却不可】06.スマート駅リンくん八尾,docomo-cycle:00000694,7,bicycle_rental,Docomo Bike Share,ドコモ・バイクシェア,Q55533296,https://docomo-cycle.jp/,yes,yes,0,0
498,34.73921,135.374627,【他ポートへの返却不可】07.スマート駅リンくん甲子園口,docomo-cycle:00000695,7,bicycle_rental,Docomo Bike Share,ドコモ・バイクシェア,Q55533296,https://docomo-cycle.jp/,yes,yes,0,0
499,34.745794,134.868956,【他ポートへの返却不可】08.スマート駅リンくん東加古川,docomo-cycle:00000696,10,bicycle_rental,Docomo Bike Share,ドコモ・バイクシェア,Q55533296,https://docomo-cycle.jp/,yes,yes,0,0
500,34.784623,134.812013,【他ポートへの返却不可】09.スマート駅リンくん宝殿,docomo-cycle:00000697,9,bicycle_rental,Docomo Bike Share,ドコモ・バイクシェア,Q55533296,https://docomo-cycle.jp/,yes,yes,0,0
501,35.712,139.62816,O3-04.アヴァンセ阿佐ヶ谷,docomo-cycle:00000698,1,bicycle_rental,Docomo Bike Share,ドコモ・バイクシェア,Q55533296,https://docomo-cycle.jp/,yes,yes,2,1
502,35.68663,139.799529,H1-163.森下公園,docomo-cycle:00000702,4,bicycle_rental,Docomo Bike Share,ドコモ・バイクシェア,Q55533296,https://docomo-cycle.jp/,yes,yes,2,2
503,35.68546,139.80244,H1-164.森下三丁目第三児童遊園,docomo-cycle:00000703,20,bicycle_rental,Docomo Bike Share,ドコモ・バイクシェア,Q55533296,https://docomo-cycle.jp/,yes,yes,2,2
504,35.645155,139.744543,C1-74.札の辻スクエア,docomo-cycle:00000704,5,bicycle_rental,Docomo Bike Share,ドコモ・バイクシェア,Q55533296,https://docomo-cycle.jp/,yes,yes,1,2
505,35.559286,139.722611,K1-127.第二石井ビル,docomo-cycle:00000705,5,bicycle_rental,Docomo Bike Share,ドコモ・バイクシェア,Q55533296,https://docomo-cycle.jp/,yes,yes,1,2
506,35.637765,139.739128,C4-13.コシダコネクトビル,docomo-cycle:00000706,13,bicycle_rental,Docomo Bike Share,ドコモ・バイクシェア,Q55533296,https://docomo-cycle.jp/,yes,yes,1,2
507,35.630961,139.746875,C5-46.ウエリスアーバン品川タワー,docomo-cycle:00000707,18,bicycle_rental,Docomo Bike Share,ドコモ・バイクシェア,Q55533296,https://docomo-cycle.jp/,yes,yes,1,2
508,35.191454,136.892431,169.名鉄協商パーキング城西4丁目第6,docomo-cycle:00000708,4,bicycle_rental,Docomo Bike Share,ドコモ・バイクシェア,Q55533296,https://docomo-cycle.jp/,yes,yes,1,1
509,35.197679,136.920735,170.ゴールド,docomo-cycle:00000709,2,bicycle_rental,Docomo Bike Share,ドコモ・バイクシェア,Q55533296,https://docomo-cycle.jp/,yes,yes,1,1
510,38.26229,140.86455,120.HF 西公園レジデンス,docomo-cycle:00000711,4,bicycle_rental,Docomo Bike Share,ドコモ・バイクシェア,Q55533296,https://docomo-cycle.jp/,yes,yes,2,2
511,35.68973,139.77598,B1-27.日本橋本町4丁目,docomo-cycle:00000712,30,bicycle_rental,Docomo Bike Share,ドコモ・バイクシェア,Q55533296,https://docomo-cycle.jp/,yes,yes,2,2
512,35.64514,139.71686,M3-22.森谷ビル,docomo-cycle:00000713,15,bicycle_rental,Docomo Bike Share,ドコモ・バイクシェア,Q55533296,https://docomo-cycle.jp/,yes,yes,1,2
513,38.277769,140.871537,121.シティハウス堤通雨宮町,docomo-cycle:00000714,6,bicycle_rental,Docomo Bike Share,ドコモ・バイクシェア,Q55533296,https://docomo-cycle.jp/,yes,yes,2,2
514,35.71046,139.6855,N3-15.ライオンズマンション中野東,docomo-cycle:00000716,4,bicycle_rental,Docomo Bike Share,ドコモ・バイクシェア,Q55533296,https://docomo-cycle.jp/,yes,yes,2,1
515,36.560359,136.653759,57.竪町通り・OMO5金沢片町,docomo-cycle:00000717,14,bicycle_rental,Docomo Bike Share,ドコモ・バイクシェア,Q55533296,https://docomo-cycle.jp/,yes,yes,2,0
516,35.167446,136.88693,172.名鉄協商パーキング笹島第７,docomo-cycle:00000718,3,bicycle_rental,Docomo Bike Share,ドコモ・バイクシェア,Q55533296,https://docomo-cycle.jp/,yes,yes,0,1
517,34.652541,135.506541,E-13.通天閣,docomo-cycle:00000719,8,bicycle_rental,Docomo Bike Share,ドコモ・バイクシェア,Q55533296,https://docomo-cycle.jp/,yes,yes,0,0
518,34.611293,135.520136,R-32.長居公園　長居植物園正門前,docomo-cycle:00000720,8,bicycle_rental,Docomo Bike Share,ドコモ・バイクシェア,Q55533296,https://docomo-cycle.jp/,yes,yes,0,0
519,35.709261,139.746374,E1-18.アーバネックス小石川春日,docomo-cycle:00000721,7,bicycle_rental,Docomo Bike Share,ドコモ・バイクシェア,Q55533296,https://docomo-cycle.jp/,yes,yes,2,2
520,35.70389,139.6185,O3-05.Nちゃりパーク,docomo-cycle:00000722,23,bicycle_rental,Docomo Bike Share,ドコモ・バイクシェア,Q55533296,https://docomo-cycle.jp/,yes,yes,2,1
521,38.271124,140.866878,122.二日町15番,docomo-cycle:00000723,12,bicycle_rental,Docomo Bike Share,ドコモ・バイクシェア,Q55533296,https://docomo-cycle.jp/,yes,yes,2,2
522,35.17094,136.909036,164.オアシス21前ステーション,docomo-cycle:00000724,4,bicycle_rental,Docomo Bike Share,ドコモ・バイクシェア,Q55533296,https://docomo-cycle.jp/,yes,yes,1,1
523,35.166151,136.891872,173.天王崎橋上流右岸広場ステーション,docomo-cycle:00000725,2,bicycle_rental,Docomo Bike Share,ドコモ・バイクシェア,Q55533296,https://docomo-cycle.jp/,yes,yes,0,1
524,35.733292,139.630369,N1-07.プランドール上鷺宮,docomo-cycle:00000726,7,bicycle_rental,Docomo Bike Share,ドコモ・バイクシェア,Q55533296,https://docomo-cycle.jp/,yes,yes,2,1
525,35.705686,139.642587,O5-02.馬橋ハイツ,docomo-cycle:00000727,6,bicycle_rental,Docomo Bike Share,ドコモ・バイクシェア,Q55533296,https://docomo-cycle.jp/,yes,yes,2,1
526,35.714616,139.625116,O3-06.アミーズ荻窪,docomo-cycle:00000728,4,bicycle_rental,Docomo Bike Share,ドコモ・バイクシェア,Q55533296,https://docomo-cycle.jp/,yes,yes,2,1
527,35.697265,139.649397,O5-03.新高円寺地下自転車駐輪場,docomo-cycle:00000729,15,bicycle_rental,Docomo Bike Share,ドコモ・バイクシェア,Q55533296,https://docomo-cycle.jp/,yes,yes,2,1
528,35.701318,139.825916,H1-165.亀戸梅屋敷,docomo-cycle:00000730,7,bicycle_rental,Docomo Bike Share,ドコモ・バイクシェア,Q55533296,https://docomo-cycle.jp/,yes,yes,2,2
529,35.696574,139.82972,H1-166.亀戸クロック,docomo-cycle:00000731,16,bicycle_rental,Docomo Bike Share,ドコモ・バイクシェア,Q55533296,https://docomo-cycle.jp/,yes,yes,2,2
530,33.223,131.65218,98.あけのアクロスタウン,docomo-cycle:00000733,10,bicycle_rental,Docomo Bike Share,ドコモ・バイクシェア,Q55533296,https://docomo-cycle.jp/,yes,yes,0,0
531,35.146061,136.897211,174.ファミリーマート金山正木橋店,docomo-cycle:00000734,5,bicycle_rental,Docomo Bike Share,ドコモ・バイクシェア,Q55533296,https://docomo-cycle.jp/,yes,yes,0,1
532,35.714044,139.61688,O3-07.NTT井草ビル第1ポート,docomo-cycle:00000736,3,bicycle_rental,Docomo Bike Share,ドコモ・バイクシェア,Q55533296,https://docomo-cycle.jp/,yes,yes,2,1
533,35.714077,139.61694,O3-08.NTT井草ビル第２ポート,docomo-cycle:00000737,3,bicycle_rental,Docomo Bike Share,ドコモ・バイクシェア,Q55533296,https://docomo-cycle.jp/,yes,yes,2,1
534,35.714151,139.61693,O3-09.NTT井草ビル第3ポート,docomo-cycle:00000738,7,bicycle_rental,Docomo Bike Share,ドコモ・バイクシェア,Q55533296,https://docomo-cycle.jp/,yes,yes,2,1
535,35.716265,139.618954,O3-10.メゾンパークス,docomo-cycle:00000739,8,bicycle_rental,Docomo Bike Share,ドコモ・バイクシェア,Q55533296,https://docomo-cycle.jp/,yes,yes,2,1
536,34.64632,135.49659,I-06.ローソン鶴見橋一丁目店,docomo-cycle:00000742,4,bicycle_rental,Docomo Bike Share,ドコモ・バイクシェア,Q55533296,https://docomo-cycle.jp/,yes,yes,0,0
537,35.668673,139.702816,M4-16.神宮前6丁目,docomo-cycle:00000744,3,bicycle_rental,Docomo Bike Share,ドコモ・バイクシェア,Q55533296,https://docomo-cycle.jp/,yes,yes,1,1
538,35.181687,136.894852,175.名鉄協商パーキング三の丸１丁目,docomo-cycle:00000746,3,bicycle_rental,Docomo Bike Share,ドコモ・バイクシェア,Q55533296,https://docomo-cycle.jp/,yes,yes,1,1
539,35.163027,136.897776,176.名鉄協商パーキング伏見南第2,docomo-cycle:00000747,5,bicycle_rental,Docomo Bike Share,ドコモ・バイクシェア,Q55533296,https://docomo-cycle.jp/,yes,yes,0,1
540,35.189531,136.89655,177.名鉄協商パーキング数寄屋町,docomo-cycle:00000748,4,bicycle_rental,Docomo Bike Share,ドコモ・バイクシェア,Q55533296,https://docomo-cycle.jp/,yes,yes,1,1
541,35.688074,139.838932,H1-167.大島八丁目公園,docomo-cycle:00000749,12,bicycle_rental,Docomo Bike Share,ドコモ・バイクシェア,Q55533296,https://docomo-cycle.jp/,yes,yes,2,2
542,35.68642,139.836151,H1-168.大島五丁目公園,docomo-cycle:00000759,14,bicycle_rental,Docomo Bike Share,ドコモ・バイクシェア,Q55533296,https://docomo-cycle.jp/,yes,yes,2,2
543,35.656647,139.758301,C1-76.浜松町駅北口交通広場(ハマサイト前),docomo-cycle:00000760,14,bicycle_rental,Docomo Bike Share,ドコモ・バイクシェア,Q55533296,https://docomo-cycle.jp/,yes,yes,1,2
544,35.707877,139.618926,O3-11.ハイリビング関根,docomo-cycle:00000761,8,bicycle_rental,Docomo Bike Share,ドコモ・バイクシェア,Q55533296,https://docomo-cycle.jp/,yes,yes,2,1
545,35.629807,139.662398,J1-52.駒沢一丁目公園前,docomo-cycle:00000763,10,bicycle_rental,Docomo Bike Share,ドコモ・バイクシェア,Q55533296,https://docomo-cycle.jp/,yes,yes,1,1
546,35.678291,139.78157,B2-18.旭ビルディング,docomo-cycle:00000764,11,bicycle_rental,Docomo Bike Share,ドコモ・バイクシェア,Q55533296,https://docomo-cycle.jp/,yes,yes,2,2
547,35.665466,139.748014,C1-75.虎ノ門PFビル,docomo-cycle:00000765,8,bicycle_rental,Docomo Bike Share,ドコモ・バイクシェア,Q55533296,https://docomo-cycle.jp/,yes,yes,1,2
548,35.722991,139.673048,N2-09.松山駐車場No.1,docomo-cycle:00000767,6,bicycle_rental,Docomo Bike Share,ドコモ・バイクシェア,Q55533296,https://docomo-cycle.jp/,yes,yes,2,1
549,35.704147,139.631955,O4-04.阿佐谷南3-43,docomo-cycle:00000768,16,bicycle_rental,Docomo Bike Share,ドコモ・バイクシェア,Q55533296,https://docomo-cycle.jp/,yes,yes,2,1
550,35.707035,139.633066,O4-03.ザ・ハウス,docomo-cycle:00000769,12,bicycle_rental,Docomo Bike Share,ドコモ・バイクシェア,Q55533296,https://docomo-cycle.jp/,yes,yes,2,1
551,35.70104,139.65839,O5-04.リヴィエール,docomo-cycle:00000770,20,bicycle_rental,Docomo Bike Share,ドコモ・バイクシェア,Q55533296,https://docomo-cycle.jp/,yes,yes,2,1
552,35.152796,136.936805,178.名鉄協商パーキング御器所北第９,docomo-cycle:00000771,5,bicycle_rental,Docomo Bike Share,ドコモ・バイクシェア,Q55533296,https://docomo-cycle.jp/,yes,yes,0,1
553,35.612833,139.675047,J1-53.ボヌールAllamanda,docomo-cycle:00000776,5,bicycle_rental,Docomo Bike Share,ドコモ・バイクシェア,Q55533296,https://docomo-cycle.jp/,yes,yes,1,1
554,35.679182,139.68596,M5-18.Luxe初台,docomo-cycle:00000777,4,bicycle_rental,Docomo Bike Share,ドコモ・バイクシェア,Q55533296,https://docomo-cycle.jp/,yes,yes,2,1
555,34.691593,135.484,C-15.JCHO大阪病院,docomo-cycle:00000778,14,bicycle_rental,Docomo Bike Share,ドコモ・バイクシェア,Q55533296,https://docomo-cycle.jp/,yes,yes,0,0
556,36.560594,136.656572,70.金沢市役所,docomo-cycle:00000779,12,bicycle_rental,Docomo Bike Share,ドコモ・バイクシェア,Q55533296,https://docomo-cycle.jp/,yes,yes,2,0
557,36.600208,136.616076,71.無量寺・アピタタウン金沢ベイ,docomo-cycle:00000780,15,bicycle_rental,Docomo Bike Share,ドコモ・バイクシェア,Q55533296,https://docomo-cycle.jp/,yes,yes,2,0
558,35.15679,136.917269,179.ファミリーマート鶴舞店,docomo-cycle:00000781,7,bicycle_rental,Docomo Bike Share,ドコモ・バイクシェア,Q55533296,https://docomo-cycle.jp/,yes,yes,0,1
559,35.652151,139.698426,M2-11.鉢山町,docomo-cycle:00000784,16,bicycle_rental,Docomo Bike Share,ドコモ・バイクシェア,Q55533296,https://docomo-cycle.jp/,yes,yes,1,1
560,34.683089,135.438839,J-03.ローソン此花酉島三丁目店,docomo-cycle:00000785,9,bicycle_rental,Docomo Bike Share,ドコモ・バイクシェア,Q55533296,https://docomo-cycle.jp/,yes,yes,0,0
561,34.66852,135.491187,E-28.ミライト・ワン,docomo-cycle:00000786,3,bicycle_rental,Docomo Bike Share,ドコモ・バイクシェア,Q55533296,https://docomo-cycle.jp/,yes,yes,0,0
562,34.670472,135.495725,D-26.ローソン南堀江一丁目店,docomo-cycle:00000787,6,bicycle_rental,Docomo Bike Share,ドコモ・バイクシェア,Q55533296,https://docomo-cycle.jp/,yes,yes,0,0
563,34.654873,135.504037,E-30.ローソン今宮戎店,docomo-cycle:00000788,4,bicycle_rental,Docomo Bike Share,ドコモ・バイクシェア,Q55533296,https://docomo-cycle.jp/,yes,yes,0,0
564,34.60763,135.527464,R-33.ローソン矢田一丁目店,docomo-cycle:00000789,5,bicycle_rental,Docomo Bike Share,ドコモ・バイクシェア,Q55533296,https://docomo-cycle.jp/,yes,yes,0,0
565,35.697157,139.839835,H1-169.セブンイレブン江東亀戸7丁目東店,docomo-cycle:00000790,7,bicycle_rental,Docomo Bike Share,ドコモ・バイクシェア,Q55533296,https://docomo-cycle.jp/,yes,yes,2,2
566,35.695937,139.838017,H1-170.セブンイレブン江東亀戸7丁目南店,docomo-cycle:00000791,7,bicycle_rental,Docomo Bike Share,ドコモ・バイクシェア,Q55533296,https://docomo-cycle.jp/,yes,yes,2,2
567,35.451329,139.525532,A-001.相鉄ライフ南まきが原,docomo-cycle:00000793,6,bicycle_rental,Docomo Bike Share,ドコモ・バイクシェア,Q55533296,https://docomo-cycle.jp/,yes,yes,1,1
568,35.428665,139.506861,I-001.TSUTAYA BOOKSTORE 弥生台,docomo-cycle:00000794,5,bicycle_rental,Docomo Bike Share,ドコモ・バイクシェア,Q55533296,https://docomo-cycle.jp/,yes,yes,1,1
569,35.430504,139.494598,I-002.相鉄ライフいずみ野,docomo-cycle:00000795,8,bicycle_rental,Docomo Bike Share,ドコモ・バイクシェア,Q55533296,https://docomo-cycle.jp/,yes,yes,1,1
570,35.705148,139.769314,E5-30.湯島3丁目15,docomo-cycle:00000796,10,bicycle_rental,Docomo Bike Share,ドコモ・バイクシェア,Q55533296,https://docomo-cycle.jp/,yes,yes,2,2
571,35.405372,139.534069,T-001.戸塚駅東口駐輪場,docomo-cycle:00000797,41,bicycle_rental,Docomo Bike Share,ドコモ・バイクシェア,Q55533296,https://docomo-cycle.jp/,yes,yes,1,1
572,35.430289,139.555123,T-002.東戸塚駅西口駐輪場,docomo-cycle:00000798,10,bicycle_rental,Docomo Bike Share,ドコモ・バイクシェア,Q55533296,https://docomo-cycle.jp/,yes,yes,1,1
573,35.432844,139.556342,T-003.東戸塚駅西口第二駐輪場,docomo-cycle:00000799,4,bicycle_rental,Docomo Bike Share,ドコモ・バイクシェア,Q55533296,https://docomo-cycle.jp/,yes,yes,1,1
574,35.410666,139.51208,I-003.中田駅第二駐輪場,docomo-cycle:00000801,5,bicycle_rental,Docomo Bike Share,ドコモ・バイクシェア,Q55533296,https://docomo-cycle.jp/,yes,yes,1,1
575,35.44727,139.600669,H-001.保土ヶ谷駅東口駐輪場,docomo-cycle:00000802,11,bicycle_rental,Docomo Bike Share,ドコモ・バイクシェア,Q55533296,https://docomo-cycle.jp/,yes,yes,1,1
576,35.459382,139.512033,A-002.希望ヶ丘駅南口第二駐輪場,docomo-cycle:00000803,7,bicycle_rental,Docomo Bike Share,ドコモ・バイクシェア,Q55533296,https://docomo-cycle.jp/,yes,yes,1,1
577,35.467451,139.505999,A-003.三ツ境駅北口第三駐輪場,docomo-cycle:00000804,7,bicycle_rental,Docomo Bike Share,ドコモ・バイクシェア,Q55533296,https://docomo-cycle.jp/,yes,yes,1,1
578,35.425975,139.559624,T-004.東戸塚駅東口第三駐輪場,docomo-cycle:00000805,11,bicycle_rental,Docomo Bike Share,ドコモ・バイクシェア,Q55533296,https://docomo-cycle.jp/,yes,yes,1,1
579,36.363883,138.234242,U-15.＋519worklodge,docomo-cycle:00000806,1,bicycle_rental,Docomo Bike Share,ドコモ・バイクシェア,Q55533296,https://docomo-cycle.jp/,yes,yes,2,1
580,36.403216,138.247279,U-02.上田市観光会館（上田城跡公園前）,docomo-cycle:00000807,6,bicycle_rental,Docomo Bike Share,ドコモ・バイクシェア,Q55533296,https://docomo-cycle.jp/,yes,yes,2,1
581,36.40465,138.25367,U-03.北国街道柳町前（中央3丁目交差点）,docomo-cycle:00000808,5,bicycle_rental,Docomo Bike Share,ドコモ・バイクシェア,Q55533296,https://docomo-cycle.jp/,yes,yes,2,1
582,36.40013,138.25977,U-04.中央公民館,docomo-cycle:00000809,5,bicycle_rental,Docomo Bike Share,ドコモ・バイクシェア,Q55533296,https://docomo-cycle.jp/,yes,yes,2,1
583,36.39827,138.2458,U-05.アリオ上田,docomo-cycle:00000810,5,bicycle_rental,Docomo Bike Share,ドコモ・バイクシェア,Q55533296,https://docomo-cycle.jp/,yes,yes,2,1
584,36.39241,138.25809,U-06.イオンスタイル上田,docomo-cycle:00000811,4,bicycle_rental,Docomo Bike Share,ドコモ・バイクシェア,Q55533296,https://docomo-cycle.jp/,yes,yes,2,1
585,36.37891,138.27339,U-07.信濃国分寺駅,docomo-cycle:00000812,3,bicycle_rental,Docomo Bike Share,ドコモ・バイクシェア,Q55533296,https://docomo-cycle.jp/,yes,yes,2,1
586,36.36297,138.21735,U-08.下之郷駅,docomo-cycle:00000813,3,bicycle_rental,Docomo Bike Share,ドコモ・バイクシェア,Q55533296,https://docomo-cycle.jp/,yes,yes,2,1
587,36.36098,138.19868,U-09.塩田町駅,docomo-cycle:00000814,3,bicycle_rental,Docomo Bike Share,ドコモ・バイクシェア,Q55533296,https://docomo-cycle.jp/,yes,yes,2,1
588,36.35318,138.16195,U-10.別所温泉駅,docomo-cycle:00000815,6,bicycle_rental,Docomo Bike Share,ドコモ・バイクシェア,Q55533296,https://docomo-cycle.jp/,yes,yes,2,1
589,36.343314,138.199332,U-11.山王山公園,docomo-cycle:00000816,2,bicycle_rental,Docomo Bike Share,ドコモ・バイクシェア,Q55533296,https://docomo-cycle.jp/,yes,yes,2,1
590,36.478469,138.145079,C-01.千曲市総合観光会館,docomo-cycle:00000817,11,bicycle_rental,Docomo Bike Share,ドコモ・バイクシェア,Q55533296,https://docomo-cycle.jp/,yes,yes,2,1
591,36.49249,138.15289,C-02.戸倉駅駐輪場,docomo-cycle:00000818,5,bicycle_rental,Docomo Bike Share,ドコモ・バイクシェア,Q55533296,https://docomo-cycle.jp/,yes,yes,2,1
592,36.508889,138.141667,C-03.千曲駅,docomo-cycle:00000819,4,bicycle_rental,Docomo Bike Share,ドコモ・バイクシェア,Q55533296,https://docomo-cycle.jp/,yes,yes,2,1
593,36.532941,138.127805,C-05.屋代駅駐輪場,docomo-cycle:00000820,6,bicycle_rental,Docomo Bike Share,ドコモ・バイクシェア,Q55533296,https://docomo-cycle.jp/,yes,yes,2,1
594,36.50921,138.134043,C-04.綿半スーパーセンター千曲店,docomo-cycle:00000821,3,bicycle_rental,Docomo Bike Share,ドコモ・バイクシェア,Q55533296,https://docomo-cycle.jp/,yes,yes,2,1
595,36.534604,138.137532,C-06.千曲市森将軍塚古墳館,docomo-cycle:00000822,4,bicycle_rental,Docomo Bike Share,ドコモ・バイクシェア,Q55533296,https://docomo-cycle.jp/,yes,yes,2,1
596,36.530747,138.114479,C-08.千曲市役所,docomo-cycle:00000823,7,bicycle_rental,Docomo Bike Share,ドコモ・バイクシェア,Q55533296,https://docomo-cycle.jp/,yes,yes,2,1
597,36.536585,138.10302,C-09.千曲市ふる里漫画館,docomo-cycle:00000824,3,bicycle_rental,Docomo Bike Share,ドコモ・バイクシェア,Q55533296,https://docomo-cycle.jp/,yes,yes,2,1
598,36.519019,138.102464,C-10.千曲市武水別神社神官　松田邸,docomo-cycle:00000825,3,bicycle_rental,Docomo Bike Share,ドコモ・バイクシェア,Q55533296,https://docomo-cycle.jp/,yes,yes,2,1
599,36.5045,138.09478,C-11.千曲市日本遺産センター,docomo-cycle:00000826,3,bicycle_rental,Docomo Bike Share,ドコモ・バイクシェア,Q55533296,https://docomo-cycle.jp/,yes,yes,2,1
600,35.180712,136.886871,180.サンモール新道,docomo-cycle:00000828,4,bicycle_rental,Docomo Bike Share,ドコモ・バイクシェア,Q55533296,https://docomo-cycle.jp/,yes,yes,1,1
601,35.156937,136.903523,181.hostel nico,docomo-cycle:00000829,5,bicycle_rental,Docomo Bike Share,ドコモ・バイクシェア,Q55533296,https://docomo-cycle.jp/,yes,yes,0,1
602,35.462635,139.532381,A-004.ジョイナステラス二俣川,docomo-cycle:00000830,20,bicycle_rental,Docomo Bike Share,ドコモ・バイクシェア,Q55533296,https://docomo-cycle.jp/,yes,yes,1,1
603,35.159312,136.890073,182.名鉄協商パーキング名駅南5丁目第３,docomo-cycle:00000831,3,bicycle_rental,Docomo Bike Share,ドコモ・バイクシェア,Q55533296,https://docomo-cycle.jp/,yes,yes,0,1
604,35.423768,139.648904,134.横浜カントリー・アンド・アスレティック・クラブ,docomo-cycle:00000832,5,bicycle_rental,Docomo Bike Share,ドコモ・バイクシェア,Q55533296,https://docomo-cycle.jp/,yes,yes,1,1
605,35.399776,139.535463,T-005.戸塚駅東口第二駐輪場,docomo-cycle:00000834,16,bicycle_rental,Docomo Bike Share,ドコモ・バイクシェア,Q55533296,https://docomo-cycle.jp/,yes,yes,1,1
606,35.399185,139.534902,T-006.戸塚駅東口第七駐輪場,docomo-cycle:00000835,7,bicycle_rental,Docomo Bike Share,ドコモ・バイクシェア,Q55533296,https://docomo-cycle.jp/,yes,yes,1,1
607,35.414361,139.500978,I-004.立場駅駐輪場,docomo-cycle:00000836,12,bicycle_rental,Docomo Bike Share,ドコモ・バイクシェア,Q55533296,https://docomo-cycle.jp/,yes,yes,1,1
608,35.461148,139.514312,A-005.希望ヶ丘駅北口駐輪場,docomo-cycle:00000837,16,bicycle_rental,Docomo Bike Share,ドコモ・バイクシェア,Q55533296,https://docomo-cycle.jp/,yes,yes,1,1
609,35.50981,139.566249,M-001.鴨居駅南口第三駐輪場,docomo-cycle:00000838,15,bicycle_rental,Docomo Bike Share,ドコモ・バイクシェア,Q55533296,https://docomo-cycle.jp/,yes,yes,1,1
610,34.659835,135.537959,N-04.いくのパーク,docomo-cycle:00000839,12,bicycle_rental,Docomo Bike Share,ドコモ・バイクシェア,Q55533296,https://docomo-cycle.jp/,yes,yes,0,0
611,35.699743,139.664608,N3-16.COURT 5,docomo-cycle:00000842,8,bicycle_rental,Docomo Bike Share,ドコモ・バイクシェア,Q55533296,https://docomo-cycle.jp/,yes,yes,2,1
612,35.708265,139.612703,O2-02.シエール荻窪,docomo-cycle:00000843,30,bicycle_rental,Docomo Bike Share,ドコモ・バイクシェア,Q55533296,https://docomo-cycle.jp/,yes,yes,2,1
613,35.759827,139.659121,T3-04.サンパレス平和台,docomo-cycle:00000844,12,bicycle_rental,Docomo Bike Share,ドコモ・バイクシェア,Q55533296,https://docomo-cycle.jp/,yes,yes,2,1
614,35.449174,139.59894,H-002.保土ヶ谷駅西口第三駐輪場,docomo-cycle:00000848,16,bicycle_rental,Docomo Bike Share,ドコモ・バイクシェア,Q55533296,https://docomo-cycle.jp/,yes,yes,1,1
615,35.399452,139.535427,T-008.戸塚スポーツセンター,docomo-cycle:00000850,11,bicycle_rental,Docomo Bike Share,ドコモ・バイクシェア,Q55533296,https://docomo-cycle.jp/,yes,yes,1,1
616,36.594204,136.626491,72.石川県庁,docomo-cycle:00000851,10,bicycle_rental,Docomo Bike Share,ドコモ・バイクシェア,Q55533296,https://docomo-cycle.jp/,yes,yes,2,0
617,35.571975,139.732137,K1-128.大森西3丁目,docomo-cycle:00000855,12,bicycle_rental,Docomo Bike Share,ドコモ・バイクシェア,Q55533296,https://docomo-cycle.jp/,yes,yes,1,2
618,35.68768,139.71937,D1-15.フロンティア四谷,docomo-cycle:00000856,8,bicycle_rental,Docomo Bike Share,ドコモ・バイクシェア,Q55533296,https://docomo-cycle.jp/,yes,yes,2,2
619,35.723723,139.740143,E4-16.ビレッジワン,docomo-cycle:00000857,6,bicycle_rental,Docomo Bike Share,ドコモ・バイクシェア,Q55533296,https://docomo-cycle.jp/,yes,yes,2,2
620,35.686015,139.642784,O7-06.松木1丁目,docomo-cycle:00000858,13,bicycle_rental,Docomo Bike Share,ドコモ・バイクシェア,Q55533296,https://docomo-cycle.jp/,yes,yes,2,1
621,35.729056,139.627864,N1-08.上鷺自転車保管場所,docomo-cycle:00000859,11,bicycle_rental,Docomo Bike Share,ドコモ・バイクシェア,Q55533296,https://docomo-cycle.jp/,yes,yes,2,1
622,35.155161,136.894957,143.大須病院南館,docomo-cycle:00000860,5,bicycle_rental,Docomo Bike Share,ドコモ・バイクシェア,Q55533296,https://docomo-cycle.jp/,yes,yes,0,1
623,35.159086,136.935585,183.サンライズ千種,docomo-cycle:00000861,5,bicycle_rental,Docomo Bike Share,ドコモ・バイクシェア,Q55533296,https://docomo-cycle.jp/,yes,yes,0,1
624,35.179096,136.91537,184.名鉄協商パーキング東片端第１,docomo-cycle:00000862,6,bicycle_rental,Docomo Bike Share,ドコモ・バイクシェア,Q55533296,https://docomo-cycle.jp/,yes,yes,1,1
625,35.176504,136.864925,185.名鉄協商パーキング本陣駅前第5,docomo-cycle:00000863,4,bicycle_rental,Docomo Bike Share,ドコモ・バイクシェア,Q55533296,https://docomo-cycle.jp/,yes,yes,1,0
626,35.530251,139.500037,M-002.NTT長津田ビル,docomo-cycle:00000864,9,bicycle_rental,Docomo Bike Share,ドコモ・バイクシェア,Q55533296,https://docomo-cycle.jp/,yes,yes,1,1
627,35.398605,139.532613,T-009.NTT戸塚支店ビル,docomo-cycle:00000865,3,bicycle_rental,Docomo Bike Share,ドコモ・バイクシェア,Q55533296,https://docomo-cycle.jp/,yes,yes,1,1
628,35.461693,139.512063,A-006.NTT希望ヶ丘ビル,docomo-cycle:00000866,5,bicycle_rental,Docomo Bike Share,ドコモ・バイクシェア,Q55533296,https://docomo-cycle.jp/,yes,yes,1,1
629,35.475736,139.572285,H-003.NTT西谷ビル,docomo-cycle:00000867,5,bicycle_rental,Docomo Bike Share,ドコモ・バイクシェア,Q55533296,https://docomo-cycle.jp/,yes,yes,1,1
630,38.24862,140.88652,123.永大ハウス工業 本社前,docomo-cycle:00000868,7,bicycle_rental,Docomo Bike Share,ドコモ・バイクシェア,Q55533296,https://docomo-cycle.jp/,yes,yes,2,2
631,35.557427,139.739126,K1-129.ローソン東糀谷一丁目店,docomo-cycle:00000869,11,bicycle_rental,Docomo Bike Share,ドコモ・バイクシェア,Q55533296,https://docomo-cycle.jp/,yes,yes,1,2
632,35.722833,139.734662,E3-08.サガラマンション,docomo-cycle:00000870,5,bicycle_rental,Docomo Bike Share,ドコモ・バイクシェア,Q55533296,https://docomo-cycle.jp/,yes,yes,2,2
633,35.701454,139.650518,O5-05.モンテ・ベルテ,docomo-cycle:00000871,2,bicycle_rental,Docomo Bike Share,ドコモ・バイクシェア,Q55533296,https://docomo-cycle.jp/,yes,yes,2,1
634,35.70273,139.65864,O5-06.EXAM高円寺南,docomo-cycle:00000872,5,bicycle_rental,Docomo Bike Share,ドコモ・バイクシェア,Q55533296,https://docomo-cycle.jp/,yes,yes,2,1
635,35.700703,139.639985,O4-05.阿佐ヶ谷南1-30,docomo-cycle:00000873,3,bicycle_rental,Docomo Bike Share,ドコモ・バイクシェア,Q55533296,https://docomo-cycle.jp/,yes,yes,2,1
636,36.547777,136.68,73.石川県立図書館,docomo-cycle:00000874,9,bicycle_rental,Docomo Bike Share,ドコモ・バイクシェア,Q55533296,https://docomo-cycle.jp/,yes,yes,2,0
637,35.175061,136.86457,187.名鉄協商パーキング鳥居通,docomo-cycle:00000875,4,bicycle_rental,Docomo Bike Share,ドコモ・バイクシェア,Q55533296,https://docomo-cycle.jp/,yes,yes,1,0
638,35.16006,136.89076,188.スクエア名駅南,docomo-cycle:00000876,5,bicycle_rental,Docomo Bike Share,ドコモ・バイクシェア,Q55533296,https://docomo-cycle.jp/,yes,yes,0,1
639,35.178692,136.909857,189.ファミリーマート東外堀町店,docomo-cycle:00000877,7,bicycle_rental,Docomo Bike Share,ドコモ・バイクシェア,Q55533296,https://docomo-cycle.jp/,yes,yes,1,1
640,35.401803,139.535686,T-010.戸塚駅東口第八駐輪場,docomo-cycle:00000878,10,bicycle_rental,Docomo Bike Share,ドコモ・バイクシェア,Q55533296,https://docomo-cycle.jp/,yes,yes,1,1
641,34.69109,135.468505,C-17.ローソン大開三丁目店,docomo-cycle:00000880,7,bicycle_rental,Docomo Bike Share,ドコモ・バイクシェア,Q55533296,https://docomo-cycle.jp/,yes,yes,0,0
