,lat,lon,ref,name,description,gbfs:name,gbfs:station_id,capacity,amenity,brand,brand:ja,brand:wikidata,brand:website,gbfs:system_id,authentication:app,fee,lat_label,lon_label
0,38.269793,140.874203,4,ドコモ東北ビル,,04.ドコモ東北ビル,1,20,bicycle_rental,Docomo Bike Share,ドコモ・バイクシェア,Q55533296,https://docomo-cycle.jp/,docomo-cycle,yes,yes,2,2
1,38.267867,140.871866,3,宮城県庁,,03.宮城県庁,2,3,bicycle_rental,Docomo Bike Share,ドコモ・バイクシェア,Q55533296,https://docomo-cycle.jp/,docomo-cycle,yes,yes,2,2
2,38.268439,140.869813,2,仙台市役所,,02.仙台市役所,3,11,bicycle_rental,Docomo Bike Share,ドコモ・バイクシェア,Q55533296,https://docomo-cycle.jp/,docomo-cycle,yes,yes,2,2
3,38.261325,140.867192,6,宮城ﾄﾖﾀ自動車MTG仙台広瀬通,,06.宮城ﾄﾖﾀ自動車MTG仙台広瀬通,4,7,bicycle_rental,Docomo Bike Share,ドコモ・バイクシェア,Q55533296,https://docomo-cycle.jp/,docomo-cycle,yes,yes,2,2
4,38.26298,140.88101,8,AER前,,08.AER前,5,16,bicycle_rental,Docomo Bike Share,ドコモ・バイクシェア,Q55533296,https://docomo-cycle.jp/,docomo-cycle,yes,yes,2,2
5,38.264085,140.868473,5,元鍛冶丁公園,,05.元鍛冶丁公園,6,16,bicycle_rental,Docomo Bike Share,ドコモ・バイクシェア,Q55533296,https://docomo-cycle.jp/,docomo-cycle,yes,yes,2,2
6,38.261369,140.875215,7,ハヤサカサイクル仙台中央店,,07.ハヤサカサイクル仙台中央店,7,5,bicycle_rental,Docomo Bike Share,ドコモ・バイクシェア,Q55533296,https://docomo-cycle.jp/,docomo-cycle,yes,yes,2,2
7,38.25678,140.876098,9,仙台トラストシティ,,09.仙台トラストシティ,8,9,bicycle_rental,Docomo Bike Share,ドコモ・バイクシェア,Q55533296,https://docomo-cycle.jp/,docomo-cycle,yes,yes,2,2
8,38.269874,140.862164,61,ローソン仙台木町通一丁目店,,61.ローソン仙台木町通一丁目店,9,2,bicycle_rental,Docomo Bike Share,ドコモ・バイクシェア,Q55533296,https://docomo-cycle.jp/,docomo-cycle,yes,yes,2,2
9,38.257715,140.879456,11,ホテルセントラル仙台,,11.ホテルセントラル仙台,10,8,bicycle_rental,Docomo Bike Share,ドコモ・バイクシェア,Q55533296,https://docomo-cycle.jp/,docomo-cycle,yes,yes,2,2
10,38.25561,140.881591,12,JR仙台病院前,,12.JR仙台病院前,11,22,bicycle_rental,Docomo Bike Share,ドコモ・バイクシェア,Q55533296,https://docomo-cycle.jp/,docomo-cycle,yes,yes,2,2
11,38.253993,140.885997,62,栽松院,,62.栽松院,13,16,bicycle_rental,Docomo Bike Share,ドコモ・バイクシェア,Q55533296,https://docomo-cycle.jp/,docomo-cycle,yes,yes,2,2
12,38.267755,140.870106,13,市役所噴水前,,13.市役所噴水前,14,15,bicycle_rental,Docomo Bike Share,ドコモ・バイクシェア,Q55533296,https://docomo-cycle.jp/,docomo-cycle,yes,yes,2,2
13,38.25723,140.903736,15,弘進ゴム アスリートパーク仙台,,15.弘進ゴム アスリートパーク仙台,15,58,bicycle_rental,Docomo Bike Share,ドコモ・バイクシェア,Q55533296,https://docomo-cycle.jp/,docomo-cycle,yes,yes,2,2
14,38.260331,140.884464,16,仙台駅東口,,16.仙台駅東口,16,20,bicycle_rental,Docomo Bike Share,ドコモ・バイクシェア,Q55533296,https://docomo-cycle.jp/,docomo-cycle,yes,yes,2,2
15,38.25402,140.88178,23,NTT五橋ビル,,23.NTT五橋ビル,17,3,bicycle_rental,Docomo Bike Share,ドコモ・バイクシェア,Q55533296,https://docomo-cycle.jp/,docomo-cycle,yes,yes,2,2
16,38.282938,140.868749,17,北仙台駅,,17.北仙台駅,18,15,bicycle_rental,Docomo Bike Share,ドコモ・バイクシェア,Q55533296,https://docomo-cycle.jp/,docomo-cycle,yes,yes,2,2
17,38.27786,140.867709,18,仙台合同庁舎,,18.仙台合同庁舎,19,10,bicycle_rental,Docomo Bike Share,ドコモ・バイクシェア,Q55533296,https://docomo-cycle.jp/,docomo-cycle,yes,yes,2,2
18,38.2668,140.87552,19,錦町公園,,19.錦町公園,20,11,bicycle_rental,Docomo Bike Share,ドコモ・バイクシェア,Q55533296,https://docomo-cycle.jp/,docomo-cycle,yes,yes,2,2
19,38.264941,140.863193,20,トークネットホール仙台,,20.トークネットホール仙台,21,7,bicycle_rental,Docomo Bike Share,ドコモ・バイクシェア,Q55533296,https://docomo-cycle.jp/,docomo-cycle,yes,yes,2,2
20,38.262729,140.876115,21,ガスサロン,,21.ガスサロン,22,6,bicycle_rental,Docomo Bike Share,ドコモ・バイクシェア,Q55533296,https://docomo-cycle.jp/,docomo-cycle,yes,yes,2,2
21,38.257556,140.870385,22,NTT青葉通ビル,,22.NTT青葉通ビル,23,6,bicycle_rental,Docomo Bike Share,ドコモ・バイクシェア,Q55533296,https://docomo-cycle.jp/,docomo-cycle,yes,yes,2,2
22,38.250233,140.880446,24,仙台福祉プラザ,,24.仙台福祉プラザ,24,8,bicycle_rental,Docomo Bike Share,ドコモ・バイクシェア,Q55533296,https://docomo-cycle.jp/,docomo-cycle,yes,yes,2,2
23,38.252584,140.866625,25,瑞鳳殿,,25.瑞鳳殿,25,5,bicycle_rental,Docomo Bike Share,ドコモ・バイクシェア,Q55533296,https://docomo-cycle.jp/,docomo-cycle,yes,yes,2,2
24,38.262756,140.854986,26,宮城県美術館,,26.宮城県美術館,26,7,bicycle_rental,Docomo Bike Share,ドコモ・バイクシェア,Q55533296,https://docomo-cycle.jp/,docomo-cycle,yes,yes,2,2
25,38.257511,140.857873,27,博物館・国際センター前,,27.博物館・国際センター前,27,3,bicycle_rental,Docomo Bike Share,ドコモ・バイクシェア,Q55533296,https://docomo-cycle.jp/,docomo-cycle,yes,yes,2,2
26,38.261241,140.873656,63,一番町平和ビル,,63.一番町平和ビル,28,23,bicycle_rental,Docomo Bike Share,ドコモ・バイクシェア,Q55533296,https://docomo-cycle.jp/,docomo-cycle,yes,yes,2,2
27,38.265352,140.885672,29,ホテルパレス仙台,,29.ホテルパレス仙台,29,5,bicycle_rental,Docomo Bike Share,ドコモ・バイクシェア,Q55533296,https://docomo-cycle.jp/,docomo-cycle,yes,yes,2,2
28,38.269382,140.862348,30,仙台市交通局,,30.仙台市交通局,30,5,bicycle_rental,Docomo Bike Share,ドコモ・バイクシェア,Q55533296,https://docomo-cycle.jp/,docomo-cycle,yes,yes,2,2
29,38.268109,140.862361,72,宮城県建設産業会館前,,72.宮城県建設産業会館前,31,7,bicycle_rental,Docomo Bike Share,ドコモ・バイクシェア,Q55533296,https://docomo-cycle.jp/,docomo-cycle,yes,yes,2,2
30,38.258622,140.893843,32,仙台サンプラザ,,32.仙台サンプラザ,32,5,bicycle_rental,Docomo Bike Share,ドコモ・バイクシェア,Q55533296,https://docomo-cycle.jp/,docomo-cycle,yes,yes,2,2
31,38.250861,140.881081,50,地下鉄 五橋駅,,50.地下鉄 五橋駅,33,4,bicycle_rental,Docomo Bike Share,ドコモ・バイクシェア,Q55533296,https://docomo-cycle.jp/,docomo-cycle,yes,yes,2,2
32,38.26024,140.856183,51,地下鉄 国際センター駅,,51.地下鉄 国際センター駅,34,9,bicycle_rental,Docomo Bike Share,ドコモ・バイクシェア,Q55533296,https://docomo-cycle.jp/,docomo-cycle,yes,yes,2,2
33,38.261738,140.886866,52,アゼリアヒルズ,,52.アゼリアヒルズ,35,4,bicycle_rental,Docomo Bike Share,ドコモ・バイクシェア,Q55533296,https://docomo-cycle.jp/,docomo-cycle,yes,yes,2,2
34,38.268989,140.867592,54,ローソン仙台二日町中央店,,54.ローソン仙台二日町中央店,37,2,bicycle_rental,Docomo Bike Share,ドコモ・バイクシェア,Q55533296,https://docomo-cycle.jp/,docomo-cycle,yes,yes,2,2
35,38.270506,140.865349,55,ローソン仙台二日町晩翠通店,,55.ローソン仙台二日町晩翠通店,38,2,bicycle_rental,Docomo Bike Share,ドコモ・バイクシェア,Q55533296,https://docomo-cycle.jp/,docomo-cycle,yes,yes,2,2
36,38.275856,140.85811,56,ローソン仙台柏木3丁目店,,56.ローソン仙台柏木3丁目店,39,8,bicycle_rental,Docomo Bike Share,ドコモ・バイクシェア,Q55533296,https://docomo-cycle.jp/,docomo-cycle,yes,yes,2,2
37,38.25508,140.87306,33,東北大学片平キャンパス,,33.東北大学片平キャンパス,40,4,bicycle_rental,Docomo Bike Share,ドコモ・バイクシェア,Q55533296,https://docomo-cycle.jp/,docomo-cycle,yes,yes,2,2
38,38.271126,140.861534,34,東北大学病院前,,34.東北大学病院前,41,6,bicycle_rental,Docomo Bike Share,ドコモ・バイクシェア,Q55533296,https://docomo-cycle.jp/,docomo-cycle,yes,yes,2,2
39,38.26064,140.86706,35,戦災復興記念館,,35.戦災復興記念館,42,6,bicycle_rental,Docomo Bike Share,ドコモ・バイクシェア,Q55533296,https://docomo-cycle.jp/,docomo-cycle,yes,yes,2,2
40,38.274186,140.86657,86,ファミリーマート仙台木町通店,,86.ファミリーマート仙台木町通店,43,4,bicycle_rental,Docomo Bike Share,ドコモ・バイクシェア,Q55533296,https://docomo-cycle.jp/,docomo-cycle,yes,yes,2,2
41,38.257662,140.886527,37,テンザホテル・仙台ステーション,,37.テンザホテル・仙台ステーション,44,2,bicycle_rental,Docomo Bike Share,ドコモ・バイクシェア,Q55533296,https://docomo-cycle.jp/,docomo-cycle,yes,yes,2,2
42,38.277859,140.872568,10,プラウドシティ 仙台上杉山通,,10.プラウドシティ 仙台上杉山通,46,11,bicycle_rental,Docomo Bike Share,ドコモ・バイクシェア,Q55533296,https://docomo-cycle.jp/,docomo-cycle,yes,yes,2,2
43,38.264843,140.880408,39,花京院スクエア・緑地,,39.花京院スクエア・緑地,47,7,bicycle_rental,Docomo Bike Share,ドコモ・バイクシェア,Q55533296,https://docomo-cycle.jp/,docomo-cycle,yes,yes,2,2
44,38.224223,140.876227,73,太白区役所,,73.太白区役所,48,14,bicycle_rental,Docomo Bike Share,ドコモ・バイクシェア,Q55533296,https://docomo-cycle.jp/,docomo-cycle,yes,yes,2,2
45,38.259609,140.881462,41,JR仙台駅西口,,41.JR仙台駅西口,49,16,bicycle_rental,Docomo Bike Share,ドコモ・バイクシェア,Q55533296,https://docomo-cycle.jp/,docomo-cycle,yes,yes,2,2
46,38.259467,140.879273,42,地下鉄仙台駅西１出入口,,42.地下鉄仙台駅西１出入口,50,9,bicycle_rental,Docomo Bike Share,ドコモ・バイクシェア,Q55533296,https://docomo-cycle.jp/,docomo-cycle,yes,yes,2,2
47,38.249825,140.905172,43,地下鉄薬師堂駅,,43.地下鉄薬師堂駅,51,9,bicycle_rental,Docomo Bike Share,ドコモ・バイクシェア,Q55533296,https://docomo-cycle.jp/,docomo-cycle,yes,yes,2,2
48,38.244867,140.900695,44,若林区役所,,44.若林区役所,52,11,bicycle_rental,Docomo Bike Share,ドコモ・バイクシェア,Q55533296,https://docomo-cycle.jp/,docomo-cycle,yes,yes,2,2
49,38.259358,140.873645,45,青葉通パークビルディング,,45.青葉通パークビルディング,53,14,bicycle_rental,Docomo Bike Share,ドコモ・バイクシェア,Q55533296,https://docomo-cycle.jp/,docomo-cycle,yes,yes,2,2
50,38.268784,140.886112,87,ファミリーマート小田原五丁目店,,87.ファミリーマート小田原五丁目店,54,15,bicycle_rental,Docomo Bike Share,ドコモ・バイクシェア,Q55533296,https://docomo-cycle.jp/,docomo-cycle,yes,yes,2,2
51,38.262857,140.878531,28,山一仙台中央ビル,,28.山一仙台中央ビル,55,6,bicycle_rental,Docomo Bike Share,ドコモ・バイクシェア,Q55533296,https://docomo-cycle.jp/,docomo-cycle,yes,yes,2,2
52,38.271804,140.854277,46,朝日プラザ柏木,,46.朝日プラザ柏木,56,7,bicycle_rental,Docomo Bike Share,ドコモ・バイクシェア,Q55533296,https://docomo-cycle.jp/,docomo-cycle,yes,yes,2,2
53,38.26662,140.869483,47,仙台パークビル,,47.仙台パークビル,57,15,bicycle_rental,Docomo Bike Share,ドコモ・バイクシェア,Q55533296,https://docomo-cycle.jp/,docomo-cycle,yes,yes,2,2
54,38.252899,140.867837,58,ローソン仙台瑞鳳店,,58.ローソン仙台瑞鳳店,58,8,bicycle_rental,Docomo Bike Share,ドコモ・バイクシェア,Q55533296,https://docomo-cycle.jp/,docomo-cycle,yes,yes,2,2
55,38.224339,140.888128,74,ドコモショップ あすと長町店,,74.ドコモショップ あすと長町店,59,12,bicycle_rental,Docomo Bike Share,ドコモ・バイクシェア,Q55533296,https://docomo-cycle.jp/,docomo-cycle,yes,yes,2,2
56,38.257597,140.879549,48,セブンイレブン仙台中央4丁目店,,48.セブンイレブン仙台中央4丁目店,60,8,bicycle_rental,Docomo Bike Share,ドコモ・バイクシェア,Q55533296,https://docomo-cycle.jp/,docomo-cycle,yes,yes,2,2
57,38.263595,140.872276,49,東二番丁スクエア,,49.東二番丁スクエア,61,42,bicycle_rental,Docomo Bike Share,ドコモ・バイクシェア,Q55533296,https://docomo-cycle.jp/,docomo-cycle,yes,yes,2,2
58,38.252111,140.88134,59,東日本不動産仙台ファーストビル,,59.東日本不動産仙台ファーストビル,62,3,bicycle_rental,Docomo Bike Share,ドコモ・バイクシェア,Q55533296,https://docomo-cycle.jp/,docomo-cycle,yes,yes,2,2
59,38.256075,140.890826,60,ベルシティ新寺,,60.ベルシティ新寺,63,6,bicycle_rental,Docomo Bike Share,ドコモ・バイクシェア,Q55533296,https://docomo-cycle.jp/,docomo-cycle,yes,yes,2,2
60,38.234338,140.87073,68,東北工業大学南門,,68.東北工業大学南門,64,6,bicycle_rental,Docomo Bike Share,ドコモ・バイクシェア,Q55533296,https://docomo-cycle.jp/,docomo-cycle,yes,yes,2,2
61,38.257291,140.873197,64,カスタリア一番町,,64.カスタリア一番町,66,10,bicycle_rental,Docomo Bike Share,ドコモ・バイクシェア,Q55533296,https://docomo-cycle.jp/,docomo-cycle,yes,yes,2,2
62,38.259632,140.866842,65,カスタリア大町,,65.カスタリア大町,67,5,bicycle_rental,Docomo Bike Share,ドコモ・バイクシェア,Q55533296,https://docomo-cycle.jp/,docomo-cycle,yes,yes,2,2
63,38.25812,140.871204,66,仙台太陽生命ビル,,66.仙台太陽生命ビル,68,6,bicycle_rental,Docomo Bike Share,ドコモ・バイクシェア,Q55533296,https://docomo-cycle.jp/,docomo-cycle,yes,yes,2,2
64,38.227417,140.885328,67,長町駅西口,,67.長町駅西口,69,13,bicycle_rental,Docomo Bike Share,ドコモ・バイクシェア,Q55533296,https://docomo-cycle.jp/,docomo-cycle,yes,yes,2,2
65,38.225958,140.883665,70,ユアーズ・パーキング長町駅前,,70.ユアーズ・パーキング長町駅前,70,8,bicycle_rental,Docomo Bike Share,ドコモ・バイクシェア,Q55533296,https://docomo-cycle.jp/,docomo-cycle,yes,yes,2,2
66,38.226154,140.885732,71,IKEA仙台,,71.IKEA仙台,71,18,bicycle_rental,Docomo Bike Share,ドコモ・バイクシェア,Q55533296,https://docomo-cycle.jp/,docomo-cycle,yes,yes,2,2
67,38.25943,140.871626,14,青葉通一番町駅,,14.青葉通一番町駅,72,6,bicycle_rental,Docomo Bike Share,ドコモ・バイクシェア,Q55533296,https://docomo-cycle.jp/,docomo-cycle,yes,yes,2,2
68,38.234453,140.880293,75,長町２丁目-１,,75.長町２丁目-１,73,4,bicycle_rental,Docomo Bike Share,ドコモ・バイクシェア,Q55533296,https://docomo-cycle.jp/,docomo-cycle,yes,yes,2,2
69,38.260881,140.868642,31,enspace,,31.enspace,74,5,bicycle_rental,Docomo Bike Share,ドコモ・バイクシェア,Q55533296,https://docomo-cycle.jp/,docomo-cycle,yes,yes,2,2
70,38.263582,140.891817,88,Nasic 仙台東口,,88.Nasic 仙台東口,76,10,bicycle_rental,Docomo Bike Share,ドコモ・バイクシェア,Q55533296,https://docomo-cycle.jp/,docomo-cycle,yes,yes,2,2
71,38.262709,140.858804,89,リビングステージ広瀬川,,89.リビングステージ広瀬川,77,6,bicycle_rental,Docomo Bike Share,ドコモ・バイクシェア,Q55533296,https://docomo-cycle.jp/,docomo-cycle,yes,yes,2,2
72,38.225498,140.889508,91,ファミリーマートあすと長町店,,91.ファミリーマートあすと長町店,79,9,bicycle_rental,Docomo Bike Share,ドコモ・バイクシェア,Q55533296,https://docomo-cycle.jp/,docomo-cycle,yes,yes,2,2
73,38.262521,140.883057,36,アパホテル<TKP仙台駅北＞,,36.アパホテル<TKP仙台駅北＞,80,9,bicycle_rental,Docomo Bike Share,ドコモ・バイクシェア,Q55533296,https://docomo-cycle.jp/,docomo-cycle,yes,yes,2,2
74,38.241683,140.887658,78,ローソン 仙台河原町駅前店,,78.ローソン 仙台河原町駅前店,82,18,bicycle_rental,Docomo Bike Share,ドコモ・バイクシェア,Q55533296,https://docomo-cycle.jp/,docomo-cycle,yes,yes,2,2
75,38.26509,140.88796,79,ローソン 仙台小田原一丁目店,,79.ローソン 仙台小田原一丁目店,83,10,bicycle_rental,Docomo Bike Share,ドコモ・バイクシェア,Q55533296,https://docomo-cycle.jp/,docomo-cycle,yes,yes,2,2
76,38.261214,140.9055,38,JR宮城野原駅,,38.JR宮城野原駅,84,7,bicycle_rental,Docomo Bike Share,ドコモ・バイクシェア,Q55533296,https://docomo-cycle.jp/,docomo-cycle,yes,yes,2,2
77,38.26458,140.884864,80,アルティザ仙台花京院,,80.アルティザ仙台花京院,85,8,bicycle_rental,Docomo Bike Share,ドコモ・バイクシェア,Q55533296,https://docomo-cycle.jp/,docomo-cycle,yes,yes,2,2
78,38.264503,140.891955,81,フォートレジデンス小田原弓ノ町,,81.フォートレジデンス小田原弓ノ町,86,7,bicycle_rental,Docomo Bike Share,ドコモ・バイクシェア,Q55533296,https://docomo-cycle.jp/,docomo-cycle,yes,yes,2,2
79,38.26391,140.894247,82,フォートレジデンス鉄砲町,,82.フォートレジデンス鉄砲町,87,12,bicycle_rental,Docomo Bike Share,ドコモ・バイクシェア,Q55533296,https://docomo-cycle.jp/,docomo-cycle,yes,yes,2,2
80,38.257371,140.878591,83,ファミリーマート仙台中央四丁目店,,83.ファミリーマート仙台中央四丁目店,88,7,bicycle_rental,Docomo Bike Share,ドコモ・バイクシェア,Q55533296,https://docomo-cycle.jp/,docomo-cycle,yes,yes,2,2
81,38.276163,140.884403,84,ファミリーマート宮町四丁目店,,84.ファミリーマート宮町四丁目店,89,16,bicycle_rental,Docomo Bike Share,ドコモ・バイクシェア,Q55533296,https://docomo-cycle.jp/,docomo-cycle,yes,yes,2,2
82,38.272755,140.873108,85,バウスクロス仙台上杉,,85.バウスクロス仙台上杉,90,4,bicycle_rental,Docomo Bike Share,ドコモ・バイクシェア,Q55533296,https://docomo-cycle.jp/,docomo-cycle,yes,yes,2,2
83,38.274421,140.898762,93,無印良品の家 仙台北店,,93.無印良品の家 仙台北店,91,14,bicycle_rental,Docomo Bike Share,ドコモ・バイクシェア,Q55533296,https://docomo-cycle.jp/,docomo-cycle,yes,yes,2,2
84,38.264145,140.908342,94,ドミール乳銀杏,,94.ドミール乳銀杏,92,8,bicycle_rental,Docomo Bike Share,ドコモ・バイクシェア,Q55533296,https://docomo-cycle.jp/,docomo-cycle,yes,yes,2,2
85,38.276089,140.868138,95,プラウドタワー仙台勾当台通,,95.プラウドタワー仙台勾当台通,94,4,bicycle_rental,Docomo Bike Share,ドコモ・バイクシェア,Q55533296,https://docomo-cycle.jp/,docomo-cycle,yes,yes,2,2
86,38.266167,140.910633,96,宮城野区役所,,96.宮城野区役所,95,7,bicycle_rental,Docomo Bike Share,ドコモ・バイクシェア,Q55533296,https://docomo-cycle.jp/,docomo-cycle,yes,yes,2,2
87,38.264653,140.890018,97,グラン・ドミール小田原弓ノ町,,97.グラン・ドミール小田原弓ノ町,96,6,bicycle_rental,Docomo Bike Share,ドコモ・バイクシェア,Q55533296,https://docomo-cycle.jp/,docomo-cycle,yes,yes,2,2
88,38.22029,140.886329,98,ファミリーマートあすと長町三丁目店,,98.ファミリーマートあすと長町三丁目店,97,4,bicycle_rental,Docomo Bike Share,ドコモ・バイクシェア,Q55533296,https://docomo-cycle.jp/,docomo-cycle,yes,yes,2,2
89,38.221584,140.883507,76,ファミリーマート長町六丁目店,,76.ファミリーマート長町六丁目店,98,8,bicycle_rental,Docomo Bike Share,ドコモ・バイクシェア,Q55533296,https://docomo-cycle.jp/,docomo-cycle,yes,yes,2,2
90,38.270114,140.857719,99,仙台厚生病院,,99.仙台厚生病院,99,3,bicycle_rental,Docomo Bike Share,ドコモ・バイクシェア,Q55533296,https://docomo-cycle.jp/,docomo-cycle,yes,yes,2,2
91,38.274021,140.87876,100,上杉五番館,,100.上杉五番館,100,7,bicycle_rental,Docomo Bike Share,ドコモ・バイクシェア,Q55533296,https://docomo-cycle.jp/,docomo-cycle,yes,yes,2,2
92,38.265306,140.906343,101,仙台ニュースカイマンション,,101.仙台ニュースカイマンション,101,7,bicycle_rental,Docomo Bike Share,ドコモ・バイクシェア,Q55533296,https://docomo-cycle.jp/,docomo-cycle,yes,yes,2,2
93,38.263161,140.881636,102,宮城野橋下,,102.宮城野橋下,102,36,bicycle_rental,Docomo Bike Share,ドコモ・バイクシェア,Q55533296,https://docomo-cycle.jp/,docomo-cycle,yes,yes,2,2
94,38.258464,140.857457,103,仙台国際センター,,103.仙台国際センター,103,15,bicycle_rental,Docomo Bike Share,ドコモ・バイクシェア,Q55533296,https://docomo-cycle.jp/,docomo-cycle,yes,yes,2,2
95,38.243242,140.875959,104,東北歯科技工専門学校,,104.東北歯科技工専門学校,104,7,bicycle_rental,Docomo Bike Share,ドコモ・バイクシェア,Q55533296,https://docomo-cycle.jp/,docomo-cycle,yes,yes,2,2
96,38.27467,140.887788,105,梅田ハイツ,,105.梅田ハイツ,105,14,bicycle_rental,Docomo Bike Share,ドコモ・バイクシェア,Q55533296,https://docomo-cycle.jp/,docomo-cycle,yes,yes,2,2
97,38.254502,140.893705,106,ファミリーマート新寺四丁目店,,106.ファミリーマート新寺四丁目店,106,6,bicycle_rental,Docomo Bike Share,ドコモ・バイクシェア,Q55533296,https://docomo-cycle.jp/,docomo-cycle,yes,yes,2,2
98,38.240991,140.887238,107,ファミリーマート若林河原町店,,107.ファミリーマート若林河原町店,107,3,bicycle_rental,Docomo Bike Share,ドコモ・バイクシェア,Q55533296,https://docomo-cycle.jp/,docomo-cycle,yes,yes,2,2
99,38.249439,140.902542,108,ファミリーマート仙台薬師堂前店,,108.ファミリーマート仙台薬師堂前店,108,5,bicycle_rental,Docomo Bike Share,ドコモ・バイクシェア,Q55533296,https://docomo-cycle.jp/,docomo-cycle,yes,yes,2,2
100,35.698512,139.716482,D4-07,新宿余丁町ビル,,D4-07.新宿余丁町ビル,109,4,bicycle_rental,Docomo Bike Share,ドコモ・バイクシェア,Q55533296,https://docomo-cycle.jp/,docomo-cycle,yes,yes,2,2
101,38.273167,140.896534,110,ファミリーマート仙台幸町二丁目店,,110.ファミリーマート仙台幸町二丁目店,110,10,bicycle_rental,Docomo Bike Share,ドコモ・バイクシェア,Q55533296,https://docomo-cycle.jp/,docomo-cycle,yes,yes,2,2
102,38.269926,140.865546,40,プラウドタワー仙台晩翠通サウス,,40.プラウドタワー仙台晩翠通サウス,111,8,bicycle_rental,Docomo Bike Share,ドコモ・バイクシェア,Q55533296,https://docomo-cycle.jp/,docomo-cycle,yes,yes,2,2
103,34.695544,135.528954,G-15,ファミリーマート京橋駅西店,,G-15.ファミリーマート京橋駅西店,113,20,bicycle_rental,Docomo Bike Share,ドコモ・バイクシェア,Q55533296,https://docomo-cycle.jp/,docomo-cycle,yes,yes,0,0
104,34.620884,135.535943,R-11,ファミリーマート針中野二丁目店,,R-11.ファミリーマート針中野二丁目店,114,5,bicycle_rental,Docomo Bike Share,ドコモ・バイクシェア,Q55533296,https://docomo-cycle.jp/,docomo-cycle,yes,yes,0,0
105,34.683973,135.466341,J-08,ファミリーマート西九条三丁目店,,J-08.ファミリーマート西九条三丁目店,115,8,bicycle_rental,Docomo Bike Share,ドコモ・バイクシェア,Q55533296,https://docomo-cycle.jp/,docomo-cycle,yes,yes,0,0
106,34.704057,135.505319,A-36,ファミリーマート中崎南店,,A-36.ファミリーマート中崎南店,116,8,bicycle_rental,Docomo Bike Share,ドコモ・バイクシェア,Q55533296,https://docomo-cycle.jp/,docomo-cycle,yes,yes,0,0
107,34.658599,135.488569,E-27,ファミリーマート芦原橋駅前店,,E-27.ファミリーマート芦原橋駅前店,117,10,bicycle_rental,Docomo Bike Share,ドコモ・バイクシェア,Q55533296,https://docomo-cycle.jp/,docomo-cycle,yes,yes,0,0
108,34.69761,135.475088,C-01,ファミリーマート海老江一丁目店,,C-01.ファミリーマート海老江一丁目店,118,4,bicycle_rental,Docomo Bike Share,ドコモ・バイクシェア,Q55533296,https://docomo-cycle.jp/,docomo-cycle,yes,yes,0,0
109,34.676948,135.557649,H-11,ファミリーマート深江北一丁目店,,H-11.ファミリーマート深江北一丁目店,119,3,bicycle_rental,Docomo Bike Share,ドコモ・バイクシェア,Q55533296,https://docomo-cycle.jp/,docomo-cycle,yes,yes,0,0
110,34.679952,135.543333,H-12,ファミリーマート中本三丁目店,,H-12.ファミリーマート中本三丁目店,120,6,bicycle_rental,Docomo Bike Share,ドコモ・バイクシェア,Q55533296,https://docomo-cycle.jp/,docomo-cycle,yes,yes,0,0
111,34.687995,135.550634,H-13,ファミリーマート東中浜四丁目店,,H-13.ファミリーマート東中浜四丁目店,121,4,bicycle_rental,Docomo Bike Share,ドコモ・バイクシェア,Q55533296,https://docomo-cycle.jp/,docomo-cycle,yes,yes,0,0
112,34.622643,135.484498,I-16,ドコモショップ玉出店,,I-16.ドコモショップ玉出店,122,12,bicycle_rental,Docomo Bike Share,ドコモ・バイクシェア,Q55533296,https://docomo-cycle.jp/,docomo-cycle,yes,yes,0,0
113,35.668395,139.769849,B3-18,銀座松竹スクエア,,B3-18.銀座松竹スクエア,123,10,bicycle_rental,Docomo Bike Share,ドコモ・バイクシェア,Q55533296,https://docomo-cycle.jp/,docomo-cycle,yes,yes,1,2
114,35.68744,139.827075,H1-147,大島四丁目団地,,H1-147.大島四丁目団地,124,35,bicycle_rental,Docomo Bike Share,ドコモ・バイクシェア,Q55533296,https://docomo-cycle.jp/,docomo-cycle,yes,yes,2,2
115,35.694104,139.840278,H1-148,大島七丁目団地,,H1-148.大島七丁目団地,125,12,bicycle_rental,Docomo Bike Share,ドコモ・バイクシェア,Q55533296,https://docomo-cycle.jp/,docomo-cycle,yes,yes,2,2
116,35.639132,139.793047,H1-149,有明ガーデン 公園口,,H1-149.有明ガーデン 公園口,126,7,bicycle_rental,Docomo Bike Share,ドコモ・バイクシェア,Q55533296,https://docomo-cycle.jp/,docomo-cycle,yes,yes,1,2
117,35.636978,139.791858,H1-150,ホテルヴィラフォンテーヌ南側,,H1-150.ホテルヴィラフォンテーヌ南側,127,7,bicycle_rental,Docomo Bike Share,ドコモ・バイクシェア,Q55533296,https://docomo-cycle.jp/,docomo-cycle,yes,yes,1,2
118,34.668021,135.508295,B-17,クリプトメリア日本橋,,B-17.クリプトメリア日本橋,128,3,bicycle_rental,Docomo Bike Share,ドコモ・バイクシェア,Q55533296,https://docomo-cycle.jp/,docomo-cycle,yes,yes,0,0
119,34.682935,135.452605,J-09,此花区役所,,J-09.此花区役所,129,9,bicycle_rental,Docomo Bike Share,ドコモ・バイクシェア,Q55533296,https://docomo-cycle.jp/,docomo-cycle,yes,yes,0,0
120,34.685816,135.456869,J-11,此花区民ホール,,J-11.此花区民ホール,130,10,bicycle_rental,Docomo Bike Share,ドコモ・バイクシェア,Q55533296,https://docomo-cycle.jp/,docomo-cycle,yes,yes,0,0
121,35.721679,139.645265,N1-04,都立家政南駐輪場,,N1-04.都立家政南駐輪場,131,8,bicycle_rental,Docomo Bike Share,ドコモ・バイクシェア,Q55533296,https://docomo-cycle.jp/,docomo-cycle,yes,yes,2,1
122,35.629067,139.711779,J1-36,WJ Haus,,J1-36.WJ Haus,132,4,bicycle_rental,Docomo Bike Share,ドコモ・バイクシェア,Q55533296,https://docomo-cycle.jp/,docomo-cycle,yes,yes,1,2
123,35.688945,139.706536,D1-13,新宿御苑新宿門【西側】,,D1-13.新宿御苑新宿門【西側】,134,10,bicycle_rental,Docomo Bike Share,ドコモ・バイクシェア,Q55533296,https://docomo-cycle.jp/,docomo-cycle,yes,yes,2,2
124,34.652031,135.53388,N-14,はたけもり,,N-14.はたけもり,136,4,bicycle_rental,Docomo Bike Share,ドコモ・バイクシェア,Q55533296,https://docomo-cycle.jp/,docomo-cycle,yes,yes,0,0
125,35.172234,136.87632,61,ＮＴＴ則武ビル,,061.ＮＴＴ則武ビル,137,5,bicycle_rental,Docomo Bike Share,ドコモ・バイクシェア,Q55533296,https://docomo-cycle.jp/,docomo-cycle,yes,yes,1,0
126,35.175612,136.921726,62,NTT布池ビル,,062.NTT布池ビル,138,5,bicycle_rental,Docomo Bike Share,ドコモ・バイクシェア,Q55533296,https://docomo-cycle.jp/,docomo-cycle,yes,yes,1,1
127,35.1694,136.912338,63,NTT栄ビル（１）（２）,,063.NTT栄ビル（１）（２）,139,11,bicycle_rental,Docomo Bike Share,ドコモ・バイクシェア,Q55533296,https://docomo-cycle.jp/,docomo-cycle,yes,yes,1,1
128,35.159334,136.907351,64,NTT上前津ビル,,064.NTT上前津ビル,140,5,bicycle_rental,Docomo Bike Share,ドコモ・バイクシェア,Q55533296,https://docomo-cycle.jp/,docomo-cycle,yes,yes,0,1
129,35.166407,136.899142,65,NTT広小路ビル,,065.NTT広小路ビル,141,5,bicycle_rental,Docomo Bike Share,ドコモ・バイクシェア,Q55533296,https://docomo-cycle.jp/,docomo-cycle,yes,yes,0,1
130,33.22999,131.61292,92,線路敷ボードウォーク広場,,92.線路敷ボードウォーク広場,143,10,bicycle_rental,Docomo Bike Share,ドコモ・バイクシェア,Q55533296,https://docomo-cycle.jp/,docomo-cycle,yes,yes,0,0
131,33.23801,131.6024,93, オアシスひろば21-A,,93. オアシスひろば21-A,144,7,bicycle_rental,Docomo Bike Share,ドコモ・バイクシェア,Q55533296,https://docomo-cycle.jp/,docomo-cycle,yes,yes,0,0
132,35.640398,139.704069,J1-37,中目黒公園,,J1-37.中目黒公園,146,18,bicycle_rental,Docomo Bike Share,ドコモ・バイクシェア,Q55533296,https://docomo-cycle.jp/,docomo-cycle,yes,yes,1,1
133,35.626355,139.700153,J1-38,林試の森公園 北,,J1-38.林試の森公園 北,147,12,bicycle_rental,Docomo Bike Share,ドコモ・バイクシェア,Q55533296,https://docomo-cycle.jp/,docomo-cycle,yes,yes,1,1
134,34.668347,135.54481,H-14,ファミリーマート今里駅前店,,H-14.ファミリーマート今里駅前店,148,13,bicycle_rental,Docomo Bike Share,ドコモ・バイクシェア,Q55533296,https://docomo-cycle.jp/,docomo-cycle,yes,yes,0,0
135,34.718715,135.521349,G-16,ファミリーマート毛馬町一丁目店,,G-16.ファミリーマート毛馬町一丁目店,149,11,bicycle_rental,Docomo Bike Share,ドコモ・バイクシェア,Q55533296,https://docomo-cycle.jp/,docomo-cycle,yes,yes,0,0
136,34.656024,135.501042,E-05,阪高ファインパーク敷津東第1,,E-05.阪高ファインパーク敷津東第1,150,6,bicycle_rental,Docomo Bike Share,ドコモ・バイクシェア,Q55533296,https://docomo-cycle.jp/,docomo-cycle,yes,yes,0,0
137,35.655483,139.687325,J1-39,松見坂公園,,J1-39.松見坂公園,151,5,bicycle_rental,Docomo Bike Share,ドコモ・バイクシェア,Q55533296,https://docomo-cycle.jp/,docomo-cycle,yes,yes,1,1
138,35.555561,139.704345,K1-97,トミンタワー多摩川二丁目,,K1-97.トミンタワー多摩川二丁目,152,13,bicycle_rental,Docomo Bike Share,ドコモ・バイクシェア,Q55533296,https://docomo-cycle.jp/,docomo-cycle,yes,yes,1,1
139,35.68752,139.72818,D1-14,コモレ四谷,,D1-14.コモレ四谷,153,10,bicycle_rental,Docomo Bike Share,ドコモ・バイクシェア,Q55533296,https://docomo-cycle.jp/,docomo-cycle,yes,yes,2,2
140,35.616541,139.697369,J1-40,西小山公園,,J1-40.西小山公園,156,9,bicycle_rental,Docomo Bike Share,ドコモ・バイクシェア,Q55533296,https://docomo-cycle.jp/,docomo-cycle,yes,yes,1,1
141,35.631319,139.70237,J1-41,CASSIA目黒,,J1-41.CASSIA目黒,157,7,bicycle_rental,Docomo Bike Share,ドコモ・バイクシェア,Q55533296,https://docomo-cycle.jp/,docomo-cycle,yes,yes,1,1
142,35.618622,139.67596,J1-42,都立大学駅北口バス停前,,J1-42.都立大学駅北口バス停前,158,15,bicycle_rental,Docomo Bike Share,ドコモ・バイクシェア,Q55533296,https://docomo-cycle.jp/,docomo-cycle,yes,yes,1,1
143,34.657657,135.505553,E-34,日本橋5-11-6,,E-34.日本橋5-11-6,160,5,bicycle_rental,Docomo Bike Share,ドコモ・バイクシェア,Q55533296,https://docomo-cycle.jp/,docomo-cycle,yes,yes,0,0
144,35.65554,139.77102,B4-22,リビオレゾン勝どきNEX,,B4-22.リビオレゾン勝どきNEX,161,11,bicycle_rental,Docomo Bike Share,ドコモ・バイクシェア,Q55533296,https://docomo-cycle.jp/,docomo-cycle,yes,yes,1,2
145,35.701347,139.819973,H1-151,コスモリード錦糸町,,H1-151.コスモリード錦糸町,162,11,bicycle_rental,Docomo Bike Share,ドコモ・バイクシェア,Q55533296,https://docomo-cycle.jp/,docomo-cycle,yes,yes,2,2
146,35.699187,139.82429,H1-152,コンポジット亀戸ウエスト,,H1-152.コンポジット亀戸ウエスト,163,2,bicycle_rental,Docomo Bike Share,ドコモ・バイクシェア,Q55533296,https://docomo-cycle.jp/,docomo-cycle,yes,yes,2,2
147,34.37361,132.47173,112,ドコモショップ翠町店,,112.ドコモショップ翠町店,165,5,bicycle_rental,Docomo Bike Share,ドコモ・バイクシェア,Q55533296,https://docomo-cycle.jp/,docomo-cycle,yes,yes,0,0
148,35.698991,139.76091,A2-25,プラウド神田駿河台,,A2-25.プラウド神田駿河台,168,12,bicycle_rental,Docomo Bike Share,ドコモ・バイクシェア,Q55533296,https://docomo-cycle.jp/,docomo-cycle,yes,yes,2,2
149,36.575763,136.637299,56,長田・金沢彩の庭ホテル,,56.長田・金沢彩の庭ホテル,172,9,bicycle_rental,Docomo Bike Share,ドコモ・バイクシェア,Q55533296,https://docomo-cycle.jp/,docomo-cycle,yes,yes,2,0
150,34.647752,135.790634,34,JR郡山駅東口(大和郡山市観光協会）,,34.JR郡山駅東口(大和郡山市観光協会）,174,5,bicycle_rental,Docomo Bike Share,ドコモ・バイクシェア,Q55533296,https://docomo-cycle.jp/,docomo-cycle,yes,yes,0,0
151,35.171138,136.896921,66,名鉄協商パーキング伏見通錦,,066.名鉄協商パーキング伏見通錦,175,6,bicycle_rental,Docomo Bike Share,ドコモ・バイクシェア,Q55533296,https://docomo-cycle.jp/,docomo-cycle,yes,yes,1,1
152,35.142426,136.902294,68,金山駅東口,,068.金山駅東口,176,10,bicycle_rental,Docomo Bike Share,ドコモ・バイクシェア,Q55533296,https://docomo-cycle.jp/,docomo-cycle,yes,yes,0,1
153,35.608402,139.726118,I1-89,下神明駅自転車駐車場,,I1-89.下神明駅自転車駐車場,180,5,bicycle_rental,Docomo Bike Share,ドコモ・バイクシェア,Q55533296,https://docomo-cycle.jp/,docomo-cycle,yes,yes,1,2
154,35.655649,139.74427,C2-22,飯倉公園,,C2-22.飯倉公園,181,11,bicycle_rental,Docomo Bike Share,ドコモ・バイクシェア,Q55533296,https://docomo-cycle.jp/,docomo-cycle,yes,yes,1,2
155,35.160983,136.881957,67,中京テレビ,,067.中京テレビ,185,4,bicycle_rental,Docomo Bike Share,ドコモ・バイクシェア,Q55533296,https://docomo-cycle.jp/,docomo-cycle,yes,yes,0,0
156,35.176832,136.88548,70,名駅2丁目竹内バイクパーク,,070.名駅2丁目竹内バイクパーク,187,5,bicycle_rental,Docomo Bike Share,ドコモ・バイクシェア,Q55533296,https://docomo-cycle.jp/,docomo-cycle,yes,yes,1,1
157,35.727195,139.590179,T2-38,ファミリーマート 練馬上石神井四丁目店,,T2-38.ファミリーマート 練馬上石神井四丁目店,190,16,bicycle_rental,Docomo Bike Share,ドコモ・バイクシェア,Q55533296,https://docomo-cycle.jp/,docomo-cycle,yes,yes,2,1
158,34.708724,135.534343,G-17,大阪シティ信用金庫 都島本通支店,,G-17.大阪シティ信用金庫 都島本通支店,191,10,bicycle_rental,Docomo Bike Share,ドコモ・バイクシェア,Q55533296,https://docomo-cycle.jp/,docomo-cycle,yes,yes,0,0
159,34.643127,135.530026,R-12,CASSIA天王寺東,,R-12.CASSIA天王寺東,192,10,bicycle_rental,Docomo Bike Share,ドコモ・バイクシェア,Q55533296,https://docomo-cycle.jp/,docomo-cycle,yes,yes,0,0
160,35.419003,139.648473,122,ファミリーマート横浜本牧店,,122.ファミリーマート横浜本牧店,193,4,bicycle_rental,Docomo Bike Share,ドコモ・バイクシェア,Q55533296,https://docomo-cycle.jp/,docomo-cycle,yes,yes,1,1
161,35.65583,139.759896,C1-71,芝商業高校前交差点,,C1-71.芝商業高校前交差点,194,4,bicycle_rental,Docomo Bike Share,ドコモ・バイクシェア,Q55533296,https://docomo-cycle.jp/,docomo-cycle,yes,yes,1,2
162,34.667138,135.495263,E-35,OCAT駐輪場,,E-35.OCAT駐輪場,195,15,bicycle_rental,Docomo Bike Share,ドコモ・バイクシェア,Q55533296,https://docomo-cycle.jp/,docomo-cycle,yes,yes,0,0
163,35.646307,139.746428,C1-72,新田町ビル,,C1-72.新田町ビル,196,7,bicycle_rental,Docomo Bike Share,ドコモ・バイクシェア,Q55533296,https://docomo-cycle.jp/,docomo-cycle,yes,yes,1,2
164,35.577433,139.680752,K1-98,鵜の木松山公園,,K1-98.鵜の木松山公園,197,7,bicycle_rental,Docomo Bike Share,ドコモ・バイクシェア,Q55533296,https://docomo-cycle.jp/,docomo-cycle,yes,yes,1,1
165,35.584086,139.67898,K1-99,東原くすのき公園,,K1-99.東原くすのき公園,198,8,bicycle_rental,Docomo Bike Share,ドコモ・バイクシェア,Q55533296,https://docomo-cycle.jp/,docomo-cycle,yes,yes,1,1
166,35.589794,139.666955,K1-100,多摩川台公園,,K1-100.多摩川台公園,199,5,bicycle_rental,Docomo Bike Share,ドコモ・バイクシェア,Q55533296,https://docomo-cycle.jp/,docomo-cycle,yes,yes,1,1
167,35.599541,139.697962,K1-101,小池公園,,K1-101.小池公園,200,4,bicycle_rental,Docomo Bike Share,ドコモ・バイクシェア,Q55533296,https://docomo-cycle.jp/,docomo-cycle,yes,yes,1,1
168,35.595119,139.6996,K1-102,上池台四丁目公園,,K1-102.上池台四丁目公園,201,7,bicycle_rental,Docomo Bike Share,ドコモ・バイクシェア,Q55533296,https://docomo-cycle.jp/,docomo-cycle,yes,yes,1,1
169,37.92328,139.04603,28,東堀パーク600,,28.東堀パーク600,203,5,bicycle_rental,Docomo Bike Share,ドコモ・バイクシェア,Q55533296,https://docomo-cycle.jp/,docomo-cycle,yes,yes,2,1
170,37.920064,139.0513,18,ホテルオークラ新潟,,18.ホテルオークラ新潟,204,8,bicycle_rental,Docomo Bike Share,ドコモ・バイクシェア,Q55533296,https://docomo-cycle.jp/,docomo-cycle,yes,yes,2,1
171,35.514643,139.706285,Z21,コーナン川崎小田栄店,,Z21.コーナン川崎小田栄店,205,4,bicycle_rental,Docomo Bike Share,ドコモ・バイクシェア,Q55533296,https://docomo-cycle.jp/,docomo-cycle,yes,yes,1,2
172,35.63851,139.823534,H1-153,三井リンクラボ新木場1,,H1-153.三井リンクラボ新木場1,206,10,bicycle_rental,Docomo Bike Share,ドコモ・バイクシェア,Q55533296,https://docomo-cycle.jp/,docomo-cycle,yes,yes,1,2
173,35.631132,139.792726,H1-154,やぐら橋下,,H1-154.やぐら橋下,207,18,bicycle_rental,Docomo Bike Share,ドコモ・バイクシェア,Q55533296,https://docomo-cycle.jp/,docomo-cycle,yes,yes,1,2
174,35.65494,139.70534,M3-20,東急ステイ渋谷新南口,,M3-20.東急ステイ渋谷新南口,208,7,bicycle_rental,Docomo Bike Share,ドコモ・バイクシェア,Q55533296,https://docomo-cycle.jp/,docomo-cycle,yes,yes,1,1
175,26.217404,127.679892,3,星野リゾートOMO5沖縄那覇,,03.星野リゾートOMO5沖縄那覇,209,4,bicycle_rental,Docomo Bike Share,ドコモ・バイクシェア,Q55533296,https://docomo-cycle.jp/,docomo-cycle,yes,yes,0,0
176,38.223217,140.87109,77,ローソン仙台泉崎一丁目店,,77.ローソン仙台泉崎一丁目店,210,11,bicycle_rental,Docomo Bike Share,ドコモ・バイクシェア,Q55533296,https://docomo-cycle.jp/,docomo-cycle,yes,yes,2,2
177,38.244684,140.885819,92,ローソン仙台土樋店,,92.ローソン仙台土樋店,211,13,bicycle_rental,Docomo Bike Share,ドコモ・バイクシェア,Q55533296,https://docomo-cycle.jp/,docomo-cycle,yes,yes,2,2
178,35.690899,139.706348,D6-28,東急ステイ新宿,,D6-28.東急ステイ新宿,212,1,bicycle_rental,Docomo Bike Share,ドコモ・バイクシェア,Q55533296,https://docomo-cycle.jp/,docomo-cycle,yes,yes,2,2
179,35.177253,136.910716,74,St.Regis IZUMI (セントレジス泉）,,074.St.Regis IZUMI (セントレジス泉）,214,3,bicycle_rental,Docomo Bike Share,ドコモ・バイクシェア,Q55533296,https://docomo-cycle.jp/,docomo-cycle,yes,yes,1,1
180,35.758929,139.597548,T2-39,ローソン 練馬大泉町五丁目店,,T2-39.ローソン 練馬大泉町五丁目店,217,8,bicycle_rental,Docomo Bike Share,ドコモ・バイクシェア,Q55533296,https://docomo-cycle.jp/,docomo-cycle,yes,yes,2,1
181,36.553237,136.62046,38,西金沢駅B,,38.西金沢駅B,218,9,bicycle_rental,Docomo Bike Share,ドコモ・バイクシェア,Q55533296,https://docomo-cycle.jp/,docomo-cycle,yes,yes,2,0
182,34.705611,135.536647,L-02,ファミリーマート城東えなみ店,,L-02.ファミリーマート城東えなみ店,223,6,bicycle_rental,Docomo Bike Share,ドコモ・バイクシェア,Q55533296,https://docomo-cycle.jp/,docomo-cycle,yes,yes,0,0
183,34.683222,135.549928,L-03,ファミリーマート東中浜六丁目店,,L-03.ファミリーマート東中浜六丁目店,224,7,bicycle_rental,Docomo Bike Share,ドコモ・バイクシェア,Q55533296,https://docomo-cycle.jp/,docomo-cycle,yes,yes,0,0
184,34.670373,135.465655,O-07,ファミリーマート波除中央大通店,,O-07.ファミリーマート波除中央大通店,225,8,bicycle_rental,Docomo Bike Share,ドコモ・バイクシェア,Q55533296,https://docomo-cycle.jp/,docomo-cycle,yes,yes,0,0
185,34.661542,135.497565,E-09,東横INN大阪なんば西,,E-09.東横INN大阪なんば西,227,4,bicycle_rental,Docomo Bike Share,ドコモ・バイクシェア,Q55533296,https://docomo-cycle.jp/,docomo-cycle,yes,yes,0,0
186,35.154116,136.906092,71,名鉄協商パーキング前津通,,071.名鉄協商パーキング前津通,229,5,bicycle_rental,Docomo Bike Share,ドコモ・バイクシェア,Q55533296,https://docomo-cycle.jp/,docomo-cycle,yes,yes,0,1
187,35.16256,136.914532,72,名鉄協商パーキング栄5丁目南,,072.名鉄協商パーキング栄5丁目南,230,4,bicycle_rental,Docomo Bike Share,ドコモ・バイクシェア,Q55533296,https://docomo-cycle.jp/,docomo-cycle,yes,yes,0,1
188,35.167385,136.889546,73,トヨタレンタリース愛知 柳橋店,,073.トヨタレンタリース愛知 柳橋店,231,7,bicycle_rental,Docomo Bike Share,ドコモ・バイクシェア,Q55533296,https://docomo-cycle.jp/,docomo-cycle,yes,yes,0,1
189,35.594515,139.691219,K1-103,雪谷特別出張所,,K1-103.雪谷特別出張所,232,4,bicycle_rental,Docomo Bike Share,ドコモ・バイクシェア,Q55533296,https://docomo-cycle.jp/,docomo-cycle,yes,yes,1,1
190,35.543573,139.714393,K1-104,六郷BASE,,K1-104.六郷BASE,233,6,bicycle_rental,Docomo Bike Share,ドコモ・バイクシェア,Q55533296,https://docomo-cycle.jp/,docomo-cycle,yes,yes,1,2
191,35.555702,139.740802,K1-105,東糀谷二丁目児童公園,,K1-105.東糀谷二丁目児童公園,234,4,bicycle_rental,Docomo Bike Share,ドコモ・バイクシェア,Q55533296,https://docomo-cycle.jp/,docomo-cycle,yes,yes,1,2
192,33.2332,131.60503,95,大分駅高架下西駐輪場,,95.大分駅高架下西駐輪場,235,10,bicycle_rental,Docomo Bike Share,ドコモ・バイクシェア,Q55533296,https://docomo-cycle.jp/,docomo-cycle,yes,yes,0,0
193,33.22844,131.61375,96,バイシクルフレンドリーステーション,,96.バイシクルフレンドリーステーション,236,4,bicycle_rental,Docomo Bike Share,ドコモ・バイクシェア,Q55533296,https://docomo-cycle.jp/,docomo-cycle,yes,yes,0,0
194,35.653771,139.769295,B4-23,交通広場（豊海町）,,B4-23.交通広場（豊海町）,237,16,bicycle_rental,Docomo Bike Share,ドコモ・バイクシェア,Q55533296,https://docomo-cycle.jp/,docomo-cycle,yes,yes,1,2
195,38.259441,140.886683,109,ホテル仙台ガーデンパレス,,109.ホテル仙台ガーデンパレス,239,9,bicycle_rental,Docomo Bike Share,ドコモ・バイクシェア,Q55533296,https://docomo-cycle.jp/,docomo-cycle,yes,yes,2,2
196,35.173401,136.876506,75,CUBE名駅,,075.CUBE名駅,240,4,bicycle_rental,Docomo Bike Share,ドコモ・バイクシェア,Q55533296,https://docomo-cycle.jp/,docomo-cycle,yes,yes,1,0
197,34.684005,135.192959,17,新港町,,17.新港町,243,13,bicycle_rental,Docomo Bike Share,ドコモ・バイクシェア,Q55533296,https://docomo-cycle.jp/,docomo-cycle,yes,yes,0,0
198,34.3925,132.504088,113,府中町役場,,113.府中町役場,244,9,bicycle_rental,Docomo Bike Share,ドコモ・バイクシェア,Q55533296,https://docomo-cycle.jp/,docomo-cycle,yes,yes,0,0
199,34.39378,132.49839,114,イオンモール広島府中,,114.イオンモール広島府中,245,8,bicycle_rental,Docomo Bike Share,ドコモ・バイクシェア,Q55533296,https://docomo-cycle.jp/,docomo-cycle,yes,yes,0,0
200,35.599329,139.703343,K1-106,ファミリーマート上池台夫婦坂店,,K1-106.ファミリーマート上池台夫婦坂店,246,10,bicycle_rental,Docomo Bike Share,ドコモ・バイクシェア,Q55533296,https://docomo-cycle.jp/,docomo-cycle,yes,yes,1,1
201,35.160686,136.881182,76,ロイヤルパークスＥＲささしま,,076.ロイヤルパークスＥＲささしま,250,9,bicycle_rental,Docomo Bike Share,ドコモ・バイクシェア,Q55533296,https://docomo-cycle.jp/,docomo-cycle,yes,yes,0,0
202,35.182883,136.893885,77,グランメール城西,,077.グランメール城西,251,5,bicycle_rental,Docomo Bike Share,ドコモ・バイクシェア,Q55533296,https://docomo-cycle.jp/,docomo-cycle,yes,yes,1,1
203,35.205894,136.891323,78,庄内ハウス,,078.庄内ハウス,252,4,bicycle_rental,Docomo Bike Share,ドコモ・バイクシェア,Q55533296,https://docomo-cycle.jp/,docomo-cycle,yes,yes,1,1
204,34.682251,135.505191,B-19,KDX南本町ビル,,B-19.KDX南本町ビル,260,9,bicycle_rental,Docomo Bike Share,ドコモ・バイクシェア,Q55533296,https://docomo-cycle.jp/,docomo-cycle,yes,yes,0,0
205,34.668307,135.463334,O-08,ファミリーマート弁天町駅前店,,O-08.ファミリーマート弁天町駅前店,261,6,bicycle_rental,Docomo Bike Share,ドコモ・バイクシェア,Q55533296,https://docomo-cycle.jp/,docomo-cycle,yes,yes,0,0
206,34.686564,135.448824,J-12,UR伝法団地,,J-12.UR伝法団地,262,26,bicycle_rental,Docomo Bike Share,ドコモ・バイクシェア,Q55533296,https://docomo-cycle.jp/,docomo-cycle,yes,yes,0,0
207,34.687582,135.460087,J-13,UR千鳥橋団地,,J-13.UR千鳥橋団地,263,24,bicycle_rental,Docomo Bike Share,ドコモ・バイクシェア,Q55533296,https://docomo-cycle.jp/,docomo-cycle,yes,yes,0,0
208,34.684736,135.439396,J-14,UR酉島リバーサイドヒルなぎさ街,,J-14.UR酉島リバーサイドヒルなぎさ街,264,7,bicycle_rental,Docomo Bike Share,ドコモ・バイクシェア,Q55533296,https://docomo-cycle.jp/,docomo-cycle,yes,yes,0,0
209,34.691763,135.460034,J-15,UR高見フローラルタウン6番街,,J-15.UR高見フローラルタウン6番街,265,9,bicycle_rental,Docomo Bike Share,ドコモ・バイクシェア,Q55533296,https://docomo-cycle.jp/,docomo-cycle,yes,yes,0,0
210,35.163562,136.890869,79,エディオン名古屋本店,,079.エディオン名古屋本店,266,5,bicycle_rental,Docomo Bike Share,ドコモ・バイクシェア,Q55533296,https://docomo-cycle.jp/,docomo-cycle,yes,yes,0,1
211,34.698414,135.489506,C-13,アパホテル大阪梅田,,C-13.アパホテル大阪梅田,267,2,bicycle_rental,Docomo Bike Share,ドコモ・バイクシェア,Q55533296,https://docomo-cycle.jp/,docomo-cycle,yes,yes,0,0
212,35.596854,139.712139,K1-107,馬込駅A2出口,,K1-107.馬込駅A2出口,269,8,bicycle_rental,Docomo Bike Share,ドコモ・バイクシェア,Q55533296,https://docomo-cycle.jp/,docomo-cycle,yes,yes,1,2
213,35.557999,139.732564,K1-108,仲江名公園,,K1-108.仲江名公園,270,5,bicycle_rental,Docomo Bike Share,ドコモ・バイクシェア,Q55533296,https://docomo-cycle.jp/,docomo-cycle,yes,yes,1,2
214,35.549323,139.737091,K1-109,萩中公園プール駐輪場,,K1-109.萩中公園プール駐輪場,271,8,bicycle_rental,Docomo Bike Share,ドコモ・バイクシェア,Q55533296,https://docomo-cycle.jp/,docomo-cycle,yes,yes,1,2
215,35.550479,139.739538,K1-110,萩中集会所裏,,K1-110.萩中集会所裏,272,12,bicycle_rental,Docomo Bike Share,ドコモ・バイクシェア,Q55533296,https://docomo-cycle.jp/,docomo-cycle,yes,yes,1,2
216,35.546499,139.736761,K1-111,本羽田公園,,K1-111.本羽田公園,273,6,bicycle_rental,Docomo Bike Share,ドコモ・バイクシェア,Q55533296,https://docomo-cycle.jp/,docomo-cycle,yes,yes,1,2
217,26.13218,127.65296,4,サザンビーチホテル＆リゾート沖縄,,04.サザンビーチホテル＆リゾート沖縄,274,7,bicycle_rental,Docomo Bike Share,ドコモ・バイクシェア,Q55533296,https://docomo-cycle.jp/,docomo-cycle,yes,yes,0,0
218,35.713913,139.745416,E1-17,小石川パークスクエア,,E1-17.小石川パークスクエア,277,10,bicycle_rental,Docomo Bike Share,ドコモ・バイクシェア,Q55533296,https://docomo-cycle.jp/,docomo-cycle,yes,yes,2,2
219,34.665411,134.961701,1,スマート駅リンくん西明石,他ポートへの返却不可,【他ポートへの返却不可】01_スマート駅リンくん西明石,280,8,bicycle_rental,Docomo Bike Share,ドコモ・バイクシェア,Q55533296,https://docomo-cycle.jp/,docomo-cycle,yes,yes,0,0
220,35.380742,136.944674,80,名鉄協商パーキング犬山駅前,,080.名鉄協商パーキング犬山駅前,281,5,bicycle_rental,Docomo Bike Share,ドコモ・バイクシェア,Q55533296,https://docomo-cycle.jp/,docomo-cycle,yes,yes,1,1
221,35.669871,139.753147,C1-73,日比谷フォートタワー,,C1-73.日比谷フォートタワー,283,14,bicycle_rental,Docomo Bike Share,ドコモ・バイクシェア,Q55533296,https://docomo-cycle.jp/,docomo-cycle,yes,yes,2,2
222,26.21429,127.67963,6,パレットくもじ県庁前駅下,,06.パレットくもじ県庁前駅下,284,5,bicycle_rental,Docomo Bike Share,ドコモ・バイクシェア,Q55533296,https://docomo-cycle.jp/,docomo-cycle,yes,yes,0,0
223,35.594658,139.700133,K1-113,ファミリーマート大田上池台四丁目店,,K1-113.ファミリーマート大田上池台四丁目店,291,7,bicycle_rental,Docomo Bike Share,ドコモ・バイクシェア,Q55533296,https://docomo-cycle.jp/,docomo-cycle,yes,yes,1,1
224,33.24183,131.60025,97,大分ソフィアプラザビル,,97.大分ソフィアプラザビル,293,14,bicycle_rental,Docomo Bike Share,ドコモ・バイクシェア,Q55533296,https://docomo-cycle.jp/,docomo-cycle,yes,yes,0,0
225,34.639479,135.538205,R-13,杭全バス停,,R-13.杭全バス停,294,5,bicycle_rental,Docomo Bike Share,ドコモ・バイクシェア,Q55533296,https://docomo-cycle.jp/,docomo-cycle,yes,yes,0,0
226,34.682882,135.437997,J-16,ファミリーマート此花酉島店,,J-16.ファミリーマート此花酉島店,295,6,bicycle_rental,Docomo Bike Share,ドコモ・バイクシェア,Q55533296,https://docomo-cycle.jp/,docomo-cycle,yes,yes,0,0
227,34.676361,135.440181,J-17,ファミリーマート此花島屋店,,J-17.ファミリーマート此花島屋店,296,7,bicycle_rental,Docomo Bike Share,ドコモ・バイクシェア,Q55533296,https://docomo-cycle.jp/,docomo-cycle,yes,yes,0,0
228,34.677831,135.443261,J-18,ファミリーマート島屋一丁目店,,J-18.ファミリーマート島屋一丁目店,297,5,bicycle_rental,Docomo Bike Share,ドコモ・バイクシェア,Q55533296,https://docomo-cycle.jp/,docomo-cycle,yes,yes,0,0
229,34.677661,135.444021,J-19,ファミリーマート島屋三丁目店,,J-19.ファミリーマート島屋三丁目店,298,6,bicycle_rental,Docomo Bike Share,ドコモ・バイクシェア,Q55533296,https://docomo-cycle.jp/,docomo-cycle,yes,yes,0,0
230,35.568722,139.680736,K1-114,下丸子公園,,K1-114.下丸子公園,301,8,bicycle_rental,Docomo Bike Share,ドコモ・バイクシェア,Q55533296,https://docomo-cycle.jp/,docomo-cycle,yes,yes,1,1
231,35.565685,139.736195,K1-115,旧呑川緑地（大森中三丁目）,,K1-115.旧呑川緑地（大森中三丁目）,302,3,bicycle_rental,Docomo Bike Share,ドコモ・バイクシェア,Q55533296,https://docomo-cycle.jp/,docomo-cycle,yes,yes,1,2
232,35.567176,139.742345,K1-116,旧呑川緑地（大森東五丁目）,,K1-116.旧呑川緑地（大森東五丁目）,303,12,bicycle_rental,Docomo Bike Share,ドコモ・バイクシェア,Q55533296,https://docomo-cycle.jp/,docomo-cycle,yes,yes,1,2
233,35.471425,139.638634,124,クリオ レジダンス横濱 ベイサイド,,124.クリオ レジダンス横濱 ベイサイド,304,11,bicycle_rental,Docomo Bike Share,ドコモ・バイクシェア,Q55533296,https://docomo-cycle.jp/,docomo-cycle,yes,yes,1,1
234,35.168031,136.922982,82,名鉄協商パーキング新栄第16,,082.名鉄協商パーキング新栄第16,305,3,bicycle_rental,Docomo Bike Share,ドコモ・バイクシェア,Q55533296,https://docomo-cycle.jp/,docomo-cycle,yes,yes,0,1
235,35.193483,136.937774,83,名鉄協商パーキング大曽根第13,,083.名鉄協商パーキング大曽根第13,306,3,bicycle_rental,Docomo Bike Share,ドコモ・バイクシェア,Q55533296,https://docomo-cycle.jp/,docomo-cycle,yes,yes,1,1
236,38.239556,140.897471,113,南小泉三丁目,,113.南小泉三丁目,308,17,bicycle_rental,Docomo Bike Share,ドコモ・バイクシェア,Q55533296,https://docomo-cycle.jp/,docomo-cycle,yes,yes,2,2
237,35.674094,139.728895,C3-29,高橋是清翁記念公園,,C3-29.高橋是清翁記念公園,309,6,bicycle_rental,Docomo Bike Share,ドコモ・バイクシェア,Q55533296,https://docomo-cycle.jp/,docomo-cycle,yes,yes,2,2
238,35.165812,136.925795,84,名鉄協商パーキング菊里町,,084.名鉄協商パーキング菊里町,310,6,bicycle_rental,Docomo Bike Share,ドコモ・バイクシェア,Q55533296,https://docomo-cycle.jp/,docomo-cycle,yes,yes,0,1
239,35.169119,136.926382,85,名鉄協商パーキング広小路車道第2,,085.名鉄協商パーキング広小路車道第2,311,4,bicycle_rental,Docomo Bike Share,ドコモ・バイクシェア,Q55533296,https://docomo-cycle.jp/,docomo-cycle,yes,yes,0,1
240,34.42029,132.46012,77,ファミリーマート大芝二丁目店,,077.ファミリーマート大芝二丁目店,315,7,bicycle_rental,Docomo Bike Share,ドコモ・バイクシェア,Q55533296,https://docomo-cycle.jp/,docomo-cycle,yes,yes,0,0
241,35.1718,136.901728,86,CASSIA錦本町通,,086.CASSIA錦本町通,316,3,bicycle_rental,Docomo Bike Share,ドコモ・バイクシェア,Q55533296,https://docomo-cycle.jp/,docomo-cycle,yes,yes,1,1
242,35.174533,136.925483,87,CASSIA車道,,087.CASSIA車道,317,3,bicycle_rental,Docomo Bike Share,ドコモ・バイクシェア,Q55533296,https://docomo-cycle.jp/,docomo-cycle,yes,yes,1,1
243,35.712413,139.70168,D3-14,コーシャハイム高田馬場,,D3-14.コーシャハイム高田馬場,318,6,bicycle_rental,Docomo Bike Share,ドコモ・バイクシェア,Q55533296,https://docomo-cycle.jp/,docomo-cycle,yes,yes,2,1
244,35.716359,139.704377,D7-11,新宿清掃事務所,,D7-11.新宿清掃事務所,319,6,bicycle_rental,Docomo Bike Share,ドコモ・バイクシェア,Q55533296,https://docomo-cycle.jp/,docomo-cycle,yes,yes,2,1
245,34.684771,135.442462,J-20,ファミリーマート酉島二丁目店,,J-20.ファミリーマート酉島二丁目店,322,6,bicycle_rental,Docomo Bike Share,ドコモ・バイクシェア,Q55533296,https://docomo-cycle.jp/,docomo-cycle,yes,yes,0,0
246,36.351464,140.306352,,友部駅（北口）,,友部駅（北口）,326,6,bicycle_rental,Docomo Bike Share,ドコモ・バイクシェア,Q55533296,https://docomo-cycle.jp/,docomo-cycle,yes,yes,2,2
247,36.35568,140.274638,,道の駅 かさま,,道の駅 かさま,327,6,bicycle_rental,Docomo Bike Share,ドコモ・バイクシェア,Q55533296,https://docomo-cycle.jp/,docomo-cycle,yes,yes,2,2
248,36.373397,140.246433,,笠間駅,,笠間駅,328,6,bicycle_rental,Docomo Bike Share,ドコモ・バイクシェア,Q55533296,https://docomo-cycle.jp/,docomo-cycle,yes,yes,2,2
249,36.37264,140.261229,,笠間芸術の森公園（笠間工芸の丘）,,笠間芸術の森公園（笠間工芸の丘）,329,6,bicycle_rental,Docomo Bike Share,ドコモ・バイクシェア,Q55533296,https://docomo-cycle.jp/,docomo-cycle,yes,yes,2,2
250,36.384529,140.256644,,笠間稲荷門前通り（かさま歴史交流館井筒屋）,,笠間稲荷門前通り（かさま歴史交流館井筒屋）,330,6,bicycle_rental,Docomo Bike Share,ドコモ・バイクシェア,Q55533296,https://docomo-cycle.jp/,docomo-cycle,yes,yes,2,2
251,34.3797,132.43903,99,ファミリーマート舟入南二丁目店,,099.ファミリーマート舟入南二丁目店,332,5,bicycle_rental,Docomo Bike Share,ドコモ・バイクシェア,Q55533296,https://docomo-cycle.jp/,docomo-cycle,yes,yes,0,0
252,34.38426,132.48716,115,ファミリーマート上東雲町店,,115.ファミリーマート上東雲町店,333,5,bicycle_rental,Docomo Bike Share,ドコモ・バイクシェア,Q55533296,https://docomo-cycle.jp/,docomo-cycle,yes,yes,0,0
253,34.3718,132.47527,116,ファミリーマート西旭町店,,116.ファミリーマート西旭町店,334,3,bicycle_rental,Docomo Bike Share,ドコモ・バイクシェア,Q55533296,https://docomo-cycle.jp/,docomo-cycle,yes,yes,0,0
254,34.42124,132.4585,117,ファミリーマート広島大宮店,,117.ファミリーマート広島大宮店,335,4,bicycle_rental,Docomo Bike Share,ドコモ・バイクシェア,Q55533296,https://docomo-cycle.jp/,docomo-cycle,yes,yes,0,0
255,34.37912,132.45686,118,ファミリーマート広島千田町店,,118.ファミリーマート広島千田町店,336,7,bicycle_rental,Docomo Bike Share,ドコモ・バイクシェア,Q55533296,https://docomo-cycle.jp/,docomo-cycle,yes,yes,0,0
256,26.15747,127.65614,13,豊見城市観光協会,,13.豊見城市観光協会,339,5,bicycle_rental,Docomo Bike Share,ドコモ・バイクシェア,Q55533296,https://docomo-cycle.jp/,docomo-cycle,yes,yes,0,0
257,35.174414,136.885305,93,ファミリーマート名駅東店,,093.ファミリーマート名駅東店,341,3,bicycle_rental,Docomo Bike Share,ドコモ・バイクシェア,Q55533296,https://docomo-cycle.jp/,docomo-cycle,yes,yes,1,1
258,35.18677,136.871088,94,ファミリーマート栄生二丁目店,,094.ファミリーマート栄生二丁目店,342,3,bicycle_rental,Docomo Bike Share,ドコモ・バイクシェア,Q55533296,https://docomo-cycle.jp/,docomo-cycle,yes,yes,1,0
259,35.160418,136.918942,95,ファミリーマート千早店,,095.ファミリーマート千早店,343,5,bicycle_rental,Docomo Bike Share,ドコモ・バイクシェア,Q55533296,https://docomo-cycle.jp/,docomo-cycle,yes,yes,0,1
260,35.163715,136.91096,96,ファミリーマート南武平町店,,096.ファミリーマート南武平町店,344,5,bicycle_rental,Docomo Bike Share,ドコモ・バイクシェア,Q55533296,https://docomo-cycle.jp/,docomo-cycle,yes,yes,0,1
261,35.144183,136.906696,97,ファミリーマート金山五丁目店,,097.ファミリーマート金山五丁目店,345,4,bicycle_rental,Docomo Bike Share,ドコモ・バイクシェア,Q55533296,https://docomo-cycle.jp/,docomo-cycle,yes,yes,0,1
262,35.186986,136.924687,98,ファミリーマート芳野三丁目店,,098.ファミリーマート芳野三丁目店,346,4,bicycle_rental,Docomo Bike Share,ドコモ・バイクシェア,Q55533296,https://docomo-cycle.jp/,docomo-cycle,yes,yes,1,1
263,35.129268,136.895175,99,ファミリーマート熱田大宝店,,099.ファミリーマート熱田大宝店,347,3,bicycle_rental,Docomo Bike Share,ドコモ・バイクシェア,Q55533296,https://docomo-cycle.jp/,docomo-cycle,yes,yes,0,1
264,35.143028,136.905126,100,ファミリーマート熱田波寄町店,,100.ファミリーマート熱田波寄町店,348,4,bicycle_rental,Docomo Bike Share,ドコモ・バイクシェア,Q55533296,https://docomo-cycle.jp/,docomo-cycle,yes,yes,0,1
265,35.159844,136.935104,101,ファミリーマート吹上駅北店,,101.ファミリーマート吹上駅北店,349,9,bicycle_rental,Docomo Bike Share,ドコモ・バイクシェア,Q55533296,https://docomo-cycle.jp/,docomo-cycle,yes,yes,0,1
266,35.64096,139.75754,C5-40,芝浦ふ頭駅前暫定自転車駐車場,,C5-40.芝浦ふ頭駅前暫定自転車駐車場,350,5,bicycle_rental,Docomo Bike Share,ドコモ・バイクシェア,Q55533296,https://docomo-cycle.jp/,docomo-cycle,yes,yes,1,2
267,35.65618,139.69612,M3-21,渋谷ソラスタ,,M3-21.渋谷ソラスタ,351,11,bicycle_rental,Docomo Bike Share,ドコモ・バイクシェア,Q55533296,https://docomo-cycle.jp/,docomo-cycle,yes,yes,1,1
268,35.44491,139.647974,125,タイムズステーション横浜山下町B,,125.タイムズステーション横浜山下町B,354,11,bicycle_rental,Docomo Bike Share,ドコモ・バイクシェア,Q55533296,https://docomo-cycle.jp/,docomo-cycle,yes,yes,1,1
269,35.458566,139.62837,126,神奈川大学みなとみらいキャンパス,,126.神奈川大学みなとみらいキャンパス,355,20,bicycle_rental,Docomo Bike Share,ドコモ・バイクシェア,Q55533296,https://docomo-cycle.jp/,docomo-cycle,yes,yes,1,1
270,38.272341,140.903512,117,アクロスプラザ仙台幸町,,117.アクロスプラザ仙台幸町,356,9,bicycle_rental,Docomo Bike Share,ドコモ・バイクシェア,Q55533296,https://docomo-cycle.jp/,docomo-cycle,yes,yes,2,2
271,35.176996,136.863369,102,ファミリーマート中村上ノ宮町店,,102.ファミリーマート中村上ノ宮町店,357,3,bicycle_rental,Docomo Bike Share,ドコモ・バイクシェア,Q55533296,https://docomo-cycle.jp/,docomo-cycle,yes,yes,1,0
272,35.170187,136.872669,103,ファミリーマート則武本通店,,103.ファミリーマート則武本通店,358,3,bicycle_rental,Docomo Bike Share,ドコモ・バイクシェア,Q55533296,https://docomo-cycle.jp/,docomo-cycle,yes,yes,1,0
273,35.170937,136.920249,104,ファミリーマート葵店,,104.ファミリーマート葵店,359,3,bicycle_rental,Docomo Bike Share,ドコモ・バイクシェア,Q55533296,https://docomo-cycle.jp/,docomo-cycle,yes,yes,1,1
274,35.170533,136.921465,105,ファミリーマート葵一丁目店,,105.ファミリーマート葵一丁目店,360,3,bicycle_rental,Docomo Bike Share,ドコモ・バイクシェア,Q55533296,https://docomo-cycle.jp/,docomo-cycle,yes,yes,1,1
275,35.17615,136.924683,106,ファミリーマート代官町東店,,106.ファミリーマート代官町東店,361,3,bicycle_rental,Docomo Bike Share,ドコモ・バイクシェア,Q55533296,https://docomo-cycle.jp/,docomo-cycle,yes,yes,1,1
276,35.192955,136.903008,107,ファミリーマート金城一丁目店,,107.ファミリーマート金城一丁目店,362,3,bicycle_rental,Docomo Bike Share,ドコモ・バイクシェア,Q55533296,https://docomo-cycle.jp/,docomo-cycle,yes,yes,1,1
277,35.158046,136.848733,108,ファミリーマート岩塚本通三丁目店,,108.ファミリーマート岩塚本通三丁目店,363,7,bicycle_rental,Docomo Bike Share,ドコモ・バイクシェア,Q55533296,https://docomo-cycle.jp/,docomo-cycle,yes,yes,0,0
278,35.157846,136.842945,109,ファミリーマート岩塚本通五丁目店,,109.ファミリーマート岩塚本通五丁目店,364,3,bicycle_rental,Docomo Bike Share,ドコモ・バイクシェア,Q55533296,https://docomo-cycle.jp/,docomo-cycle,yes,yes,0,0
279,35.168196,136.919224,110,ＲＴセンターステージビル,,110.ＲＴセンターステージビル,365,4,bicycle_rental,Docomo Bike Share,ドコモ・バイクシェア,Q55533296,https://docomo-cycle.jp/,docomo-cycle,yes,yes,0,1
280,35.124198,136.912221,111,名鉄協商パーキング神宮前駅西立体駐車場,,111.名鉄協商パーキング神宮前駅西立体駐車場,366,4,bicycle_rental,Docomo Bike Share,ドコモ・バイクシェア,Q55533296,https://docomo-cycle.jp/,docomo-cycle,yes,yes,0,1
281,35.146467,136.900576,112,サンプラザ金山,,112.サンプラザ金山,367,3,bicycle_rental,Docomo Bike Share,ドコモ・バイクシェア,Q55533296,https://docomo-cycle.jp/,docomo-cycle,yes,yes,0,1
282,35.181068,136.879719,113,イオンモールNagoyaNoritakeGarden前,,113.イオンモールNagoyaNoritakeGarden前,368,9,bicycle_rental,Docomo Bike Share,ドコモ・バイクシェア,Q55533296,https://docomo-cycle.jp/,docomo-cycle,yes,yes,1,0
283,35.181193,136.880191,114,則武新町立体駐車場前,,114.則武新町立体駐車場前,369,10,bicycle_rental,Docomo Bike Share,ドコモ・バイクシェア,Q55533296,https://docomo-cycle.jp/,docomo-cycle,yes,yes,1,0
284,35.72515,139.672614,N2-06,江古田1丁目B,,N2-06.江古田1丁目B,370,6,bicycle_rental,Docomo Bike Share,ドコモ・バイクシェア,Q55533296,https://docomo-cycle.jp/,docomo-cycle,yes,yes,2,1
285,35.715538,139.701683,D7-12,プラウド高田馬場,,D7-12.プラウド高田馬場,371,6,bicycle_rental,Docomo Bike Share,ドコモ・バイクシェア,Q55533296,https://docomo-cycle.jp/,docomo-cycle,yes,yes,2,1
286,35.63237,139.712681,J1-43,アルコタワー・ホテル雅叙園東京,,J1-43.アルコタワー・ホテル雅叙園東京,372,12,bicycle_rental,Docomo Bike Share,ドコモ・バイクシェア,Q55533296,https://docomo-cycle.jp/,docomo-cycle,yes,yes,1,2
287,34.684273,135.793637,40,平城宮跡前駐車場,,40.平城宮跡前駐車場,374,5,bicycle_rental,Docomo Bike Share,ドコモ・バイクシェア,Q55533296,https://docomo-cycle.jp/,docomo-cycle,yes,yes,0,0
288,35.581798,139.695222,K1-117,安詳寺,,K1-117.安詳寺,375,20,bicycle_rental,Docomo Bike Share,ドコモ・バイクシェア,Q55533296,https://docomo-cycle.jp/,docomo-cycle,yes,yes,1,1
289,35.580741,139.687152,K1-118,久が原3丁目,,K1-118.久が原3丁目,376,8,bicycle_rental,Docomo Bike Share,ドコモ・バイクシェア,Q55533296,https://docomo-cycle.jp/,docomo-cycle,yes,yes,1,1
290,35.571866,139.703214,K1-125,池上駅南口第1,,K1-125.池上駅南口第1,377,2,bicycle_rental,Docomo Bike Share,ドコモ・バイクシェア,Q55533296,https://docomo-cycle.jp/,docomo-cycle,yes,yes,1,1
291,35.571815,139.702387,K1-126,池上駅南口第2,,K1-126.池上駅南口第2,378,3,bicycle_rental,Docomo Bike Share,ドコモ・バイクシェア,Q55533296,https://docomo-cycle.jp/,docomo-cycle,yes,yes,1,1
292,35.627599,139.782953,H1-159,夢の大橋西,,H1-159.夢の大橋西,380,16,bicycle_rental,Docomo Bike Share,ドコモ・バイクシェア,Q55533296,https://docomo-cycle.jp/,docomo-cycle,yes,yes,1,2
293,35.630791,139.787396,H1-156,つどい橋下,,H1-156.つどい橋下,381,9,bicycle_rental,Docomo Bike Share,ドコモ・バイクシェア,Q55533296,https://docomo-cycle.jp/,docomo-cycle,yes,yes,1,2
294,38.26036,140.893328,114,榴岡天満宮,,114.榴岡天満宮,382,10,bicycle_rental,Docomo Bike Share,ドコモ・バイクシェア,Q55533296,https://docomo-cycle.jp/,docomo-cycle,yes,yes,2,2
295,35.67741,139.67383,M6-15,cova Hatagaya,,M6-15.cova Hatagaya,383,3,bicycle_rental,Docomo Bike Share,ドコモ・バイクシェア,Q55533296,https://docomo-cycle.jp/,docomo-cycle,yes,yes,2,1
296,35.68168,139.77825,B2-15,KABUTO ONE,,B2-15.KABUTO ONE,384,7,bicycle_rental,Docomo Bike Share,ドコモ・バイクシェア,Q55533296,https://docomo-cycle.jp/,docomo-cycle,yes,yes,2,2
297,35.624619,139.776006,H1-143,ダイバーシティ東京 プラザ,,H1-143.ダイバーシティ東京 プラザ,386,7,bicycle_rental,Docomo Bike Share,ドコモ・バイクシェア,Q55533296,https://docomo-cycle.jp/,docomo-cycle,yes,yes,1,2
298,35.177033,136.908939,118,ライブコート泉,,118.ライブコート泉,388,5,bicycle_rental,Docomo Bike Share,ドコモ・バイクシェア,Q55533296,https://docomo-cycle.jp/,docomo-cycle,yes,yes,1,1
299,35.165423,136.898113,124,名鉄協商パーキング白川公園,,124.名鉄協商パーキング白川公園,389,3,bicycle_rental,Docomo Bike Share,ドコモ・バイクシェア,Q55533296,https://docomo-cycle.jp/,docomo-cycle,yes,yes,0,1
300,35.184569,136.893505,115,ファミリーマート城西二丁目店,,115.ファミリーマート城西二丁目店,390,3,bicycle_rental,Docomo Bike Share,ドコモ・バイクシェア,Q55533296,https://docomo-cycle.jp/,docomo-cycle,yes,yes,1,1
301,35.181023,136.885714,116,ファミリーマート菊井一丁目店,,116.ファミリーマート菊井一丁目店,391,3,bicycle_rental,Docomo Bike Share,ドコモ・バイクシェア,Q55533296,https://docomo-cycle.jp/,docomo-cycle,yes,yes,1,1
302,35.184704,136.919934,117,ファミリーマート芳野一丁目店,,117.ファミリーマート芳野一丁目店,392,3,bicycle_rental,Docomo Bike Share,ドコモ・バイクシェア,Q55533296,https://docomo-cycle.jp/,docomo-cycle,yes,yes,1,1
303,35.17497,136.887116,119,ファミリーマート那古野南店,,119.ファミリーマート那古野南店,393,4,bicycle_rental,Docomo Bike Share,ドコモ・バイクシェア,Q55533296,https://docomo-cycle.jp/,docomo-cycle,yes,yes,1,1
304,35.153325,136.911482,120,ファミリーマート名古屋千代田店,,120.ファミリーマート名古屋千代田店,394,5,bicycle_rental,Docomo Bike Share,ドコモ・バイクシェア,Q55533296,https://docomo-cycle.jp/,docomo-cycle,yes,yes,0,1
305,35.191195,136.908134,121,ファミリーマート柳原二丁目店,,121.ファミリーマート柳原二丁目店,395,5,bicycle_rental,Docomo Bike Share,ドコモ・バイクシェア,Q55533296,https://docomo-cycle.jp/,docomo-cycle,yes,yes,1,1
306,35.154944,136.898274,122,ファミリーマート松原二丁目店,,122.ファミリーマート松原二丁目店,396,4,bicycle_rental,Docomo Bike Share,ドコモ・バイクシェア,Q55533296,https://docomo-cycle.jp/,docomo-cycle,yes,yes,0,1
307,35.166588,136.86575,123,ファミリーマート中村大宮町店,,123.ファミリーマート中村大宮町店,397,3,bicycle_rental,Docomo Bike Share,ドコモ・バイクシェア,Q55533296,https://docomo-cycle.jp/,docomo-cycle,yes,yes,0,0
308,35.644241,139.753834,C5-42,DHC芝浦2丁目ビル,,C5-42.DHC芝浦2丁目ビル,398,10,bicycle_rental,Docomo Bike Share,ドコモ・バイクシェア,Q55533296,https://docomo-cycle.jp/,docomo-cycle,yes,yes,1,2
309,35.639644,139.745532,C5-41,トヨタモビリティ東京 芝浦店,,C5-41.トヨタモビリティ東京 芝浦店,399,7,bicycle_rental,Docomo Bike Share,ドコモ・バイクシェア,Q55533296,https://docomo-cycle.jp/,docomo-cycle,yes,yes,1,2
310,34.38862,132.4298,119,ダイハツ広島　観音店,,119.ダイハツ広島　観音店,400,7,bicycle_rental,Docomo Bike Share,ドコモ・バイクシェア,Q55533296,https://docomo-cycle.jp/,docomo-cycle,yes,yes,0,0
311,34.38098,132.49154,120,ファミリーマート広島東雲店,,120.ファミリーマート広島東雲店,401,3,bicycle_rental,Docomo Bike Share,ドコモ・バイクシェア,Q55533296,https://docomo-cycle.jp/,docomo-cycle,yes,yes,0,0
312,34.35591,132.46347,121,ファミリーマート宇品神田店,,121.ファミリーマート宇品神田店,402,5,bicycle_rental,Docomo Bike Share,ドコモ・バイクシェア,Q55533296,https://docomo-cycle.jp/,docomo-cycle,yes,yes,0,0
313,34.39544,132.44759,122,ファミリーマート猫屋町店,,122.ファミリーマート猫屋町店,403,5,bicycle_rental,Docomo Bike Share,ドコモ・バイクシェア,Q55533296,https://docomo-cycle.jp/,docomo-cycle,yes,yes,0,0
314,34.38711,132.43128,123,ファミリーマート南観音三丁目店,,123.ファミリーマート南観音三丁目店,404,5,bicycle_rental,Docomo Bike Share,ドコモ・バイクシェア,Q55533296,https://docomo-cycle.jp/,docomo-cycle,yes,yes,0,0
315,38.233175,140.877372,111,ローソン仙台鹿野一丁目店,,111.ローソン仙台鹿野一丁目店,406,7,bicycle_rental,Docomo Bike Share,ドコモ・バイクシェア,Q55533296,https://docomo-cycle.jp/,docomo-cycle,yes,yes,2,2
316,35.67684,139.77876,B2-16,ホテルサードニクス東京,,B2-16.ホテルサードニクス東京,407,6,bicycle_rental,Docomo Bike Share,ドコモ・バイクシェア,Q55533296,https://docomo-cycle.jp/,docomo-cycle,yes,yes,2,2
317,35.447638,139.626706,127,横浜市中央図書館,,127.横浜市中央図書館,409,7,bicycle_rental,Docomo Bike Share,ドコモ・バイクシェア,Q55533296,https://docomo-cycle.jp/,docomo-cycle,yes,yes,1,1
318,35.63363,139.79082,H1-04,石と光の広場（国際展示場駅）,,H1-04.石と光の広場（国際展示場駅）,410,60,bicycle_rental,Docomo Bike Share,ドコモ・バイクシェア,Q55533296,https://docomo-cycle.jp/,docomo-cycle,yes,yes,1,2
319,35.74248,139.58715,T2-41,ローソン 練馬東大泉五丁目店,,T2-41.ローソン 練馬東大泉五丁目店,411,4,bicycle_rental,Docomo Bike Share,ドコモ・バイクシェア,Q55533296,https://docomo-cycle.jp/,docomo-cycle,yes,yes,2,1
320,34.674095,135.504396,B-25,クインテッサホテル大阪心斎橋,,B-25.クインテッサホテル大阪心斎橋,414,18,bicycle_rental,Docomo Bike Share,ドコモ・バイクシェア,Q55533296,https://docomo-cycle.jp/,docomo-cycle,yes,yes,0,0
321,34.625694,135.56282,U-02,大阪シティ信用金庫 平野支店,,U-02.大阪シティ信用金庫 平野支店,415,4,bicycle_rental,Docomo Bike Share,ドコモ・バイクシェア,Q55533296,https://docomo-cycle.jp/,docomo-cycle,yes,yes,0,0
322,35.187378,136.876628,127,名鉄協商パーキング上更,,127.名鉄協商パーキング上更,416,6,bicycle_rental,Docomo Bike Share,ドコモ・バイクシェア,Q55533296,https://docomo-cycle.jp/,docomo-cycle,yes,yes,1,0
323,35.164312,136.9185,129,新栄第7ロイヤルマンション,,129.新栄第7ロイヤルマンション,418,3,bicycle_rental,Docomo Bike Share,ドコモ・バイクシェア,Q55533296,https://docomo-cycle.jp/,docomo-cycle,yes,yes,0,1
324,37.91286,139.06081,21,新潟駅万代広場,,21.新潟駅万代広場,419,10,bicycle_rental,Docomo Bike Share,ドコモ・バイクシェア,Q55533296,https://docomo-cycle.jp/,docomo-cycle,yes,yes,2,1
325,35.44626,139.64035,128,神奈川住空間,,128.神奈川住空間,425,3,bicycle_rental,Docomo Bike Share,ドコモ・バイクシェア,Q55533296,https://docomo-cycle.jp/,docomo-cycle,yes,yes,1,1
326,38.23371,140.88746,115,長町一丁目駅,,115.長町一丁目駅,426,11,bicycle_rental,Docomo Bike Share,ドコモ・バイクシェア,Q55533296,https://docomo-cycle.jp/,docomo-cycle,yes,yes,2,2
327,35.18432,136.888748,125,ファミリーマート名古屋浅間町店,,125.ファミリーマート名古屋浅間町店,432,8,bicycle_rental,Docomo Bike Share,ドコモ・バイクシェア,Q55533296,https://docomo-cycle.jp/,docomo-cycle,yes,yes,1,1
328,35.159041,136.898093,126,ファミリーマート大須一丁目店,,126.ファミリーマート大須一丁目店,433,8,bicycle_rental,Docomo Bike Share,ドコモ・バイクシェア,Q55533296,https://docomo-cycle.jp/,docomo-cycle,yes,yes,0,1
329,35.153739,136.908691,131,ファミリーマートたちばな店,,131.ファミリーマートたちばな店,434,3,bicycle_rental,Docomo Bike Share,ドコモ・バイクシェア,Q55533296,https://docomo-cycle.jp/,docomo-cycle,yes,yes,0,1
330,35.645726,139.784496,H1-155,メブクス豊洲,,H1-155.メブクス豊洲,435,21,bicycle_rental,Docomo Bike Share,ドコモ・バイクシェア,Q55533296,https://docomo-cycle.jp/,docomo-cycle,yes,yes,1,2
331,35.684003,139.794983,H1-161,昭文社制作本部ビル,,H1-161.昭文社制作本部ビル,436,7,bicycle_rental,Docomo Bike Share,ドコモ・バイクシェア,Q55533296,https://docomo-cycle.jp/,docomo-cycle,yes,yes,2,2
332,35.64816,139.737991,C4-11,ザ・パークハウス 三田ガーデン,,C4-11.ザ・パークハウス 三田ガーデン,437,14,bicycle_rental,Docomo Bike Share,ドコモ・バイクシェア,Q55533296,https://docomo-cycle.jp/,docomo-cycle,yes,yes,1,2
333,34.62229,135.526514,R-14,東住吉区役所,,R-14.東住吉区役所,439,5,bicycle_rental,Docomo Bike Share,ドコモ・バイクシェア,Q55533296,https://docomo-cycle.jp/,docomo-cycle,yes,yes,0,0
334,34.602724,135.532175,R-15,東住吉区役所矢田出張所,,R-15.東住吉区役所矢田出張所,440,11,bicycle_rental,Docomo Bike Share,ドコモ・バイクシェア,Q55533296,https://docomo-cycle.jp/,docomo-cycle,yes,yes,0,0
335,34.620324,135.527481,R-16,東住吉会館複合施設,,R-16.東住吉会館複合施設,441,4,bicycle_rental,Docomo Bike Share,ドコモ・バイクシェア,Q55533296,https://docomo-cycle.jp/,docomo-cycle,yes,yes,0,0
336,34.599032,135.526116,R-17,東住吉スポーツセンター,,R-17.東住吉スポーツセンター,442,10,bicycle_rental,Docomo Bike Share,ドコモ・バイクシェア,Q55533296,https://docomo-cycle.jp/,docomo-cycle,yes,yes,0,0
337,34.615535,135.518748,R-18,長居公園　北口,,R-18.長居公園　北口,443,10,bicycle_rental,Docomo Bike Share,ドコモ・バイクシェア,Q55533296,https://docomo-cycle.jp/,docomo-cycle,yes,yes,0,0
338,34.615127,135.526209,R-19,長居公園　北東口,,R-19.長居公園　北東口,444,9,bicycle_rental,Docomo Bike Share,ドコモ・バイクシェア,Q55533296,https://docomo-cycle.jp/,docomo-cycle,yes,yes,0,0
339,34.611217,135.517374,R-20,長居公園　駐輪場内,,R-20.長居公園　駐輪場内,445,10,bicycle_rental,Docomo Bike Share,ドコモ・バイクシェア,Q55533296,https://docomo-cycle.jp/,docomo-cycle,yes,yes,0,0
340,34.609589,135.521454,R-21,長居公園　南口,,R-21.長居公園　南口,446,10,bicycle_rental,Docomo Bike Share,ドコモ・バイクシェア,Q55533296,https://docomo-cycle.jp/,docomo-cycle,yes,yes,0,0
341,34.609763,135.526267,R-22,長居公園　南東口,,R-22.長居公園　南東口,447,10,bicycle_rental,Docomo Bike Share,ドコモ・バイクシェア,Q55533296,https://docomo-cycle.jp/,docomo-cycle,yes,yes,0,0
342,34.619912,135.532183,R-23,駒川商店街ココロホール,,R-23.駒川商店街ココロホール,448,5,bicycle_rental,Docomo Bike Share,ドコモ・バイクシェア,Q55533296,https://docomo-cycle.jp/,docomo-cycle,yes,yes,0,0
343,35.17823,136.876331,133,愛知韓国人会館,,133.愛知韓国人会館,449,5,bicycle_rental,Docomo Bike Share,ドコモ・バイクシェア,Q55533296,https://docomo-cycle.jp/,docomo-cycle,yes,yes,1,0
344,35.174156,136.900214,132,名鉄協商パーキング丸の内2丁目第8,,132.名鉄協商パーキング丸の内2丁目第8,451,5,bicycle_rental,Docomo Bike Share,ドコモ・バイクシェア,Q55533296,https://docomo-cycle.jp/,docomo-cycle,yes,yes,1,1
345,34.696321,135.485835,C-14,CASSIA福島駅前,,C-14.CASSIA福島駅前,452,7,bicycle_rental,Docomo Bike Share,ドコモ・バイクシェア,Q55533296,https://docomo-cycle.jp/,docomo-cycle,yes,yes,0,0
346,35.58223,139.72763,K1-119,シーンズ大森パークサイド,,K1-119.シーンズ大森パークサイド,453,4,bicycle_rental,Docomo Bike Share,ドコモ・バイクシェア,Q55533296,https://docomo-cycle.jp/,docomo-cycle,yes,yes,1,2
347,35.169544,136.889503,135,ファミリーマート名駅柳橋店,,135.ファミリーマート名駅柳橋店,454,5,bicycle_rental,Docomo Bike Share,ドコモ・バイクシェア,Q55533296,https://docomo-cycle.jp/,docomo-cycle,yes,yes,1,1
348,35.183047,136.909761,136,ファミリーマート明和高校前店,,136.ファミリーマート明和高校前店,455,4,bicycle_rental,Docomo Bike Share,ドコモ・バイクシェア,Q55533296,https://docomo-cycle.jp/,docomo-cycle,yes,yes,1,1
349,35.688735,139.692249,D6-29,都庁第二本庁舎前,,D6-29.都庁第二本庁舎前,458,13,bicycle_rental,Docomo Bike Share,ドコモ・バイクシェア,Q55533296,https://docomo-cycle.jp/,docomo-cycle,yes,yes,2,1
350,35.6897,139.694823,D6-30,京王プラザホテル,,D6-30.京王プラザホテル,459,7,bicycle_rental,Docomo Bike Share,ドコモ・バイクシェア,Q55533296,https://docomo-cycle.jp/,docomo-cycle,yes,yes,2,1
351,35.6866,139.70014,M5-17,小田急サザンタワー,,M5-17.小田急サザンタワー,461,9,bicycle_rental,Docomo Bike Share,ドコモ・バイクシェア,Q55533296,https://docomo-cycle.jp/,docomo-cycle,yes,yes,2,1
352,34.615485,135.520256,R-24,山坂団地,,R-24.山坂団地,462,5,bicycle_rental,Docomo Bike Share,ドコモ・バイクシェア,Q55533296,https://docomo-cycle.jp/,docomo-cycle,yes,yes,0,0
353,35.44749,139.63387,129,ニッセイ横浜尾上町ビル,,129.ニッセイ横浜尾上町ビル,463,5,bicycle_rental,Docomo Bike Share,ドコモ・バイクシェア,Q55533296,https://docomo-cycle.jp/,docomo-cycle,yes,yes,1,1
354,35.160259,136.893584,137,自由自在ＯＳＵ,,137.自由自在ＯＳＵ,464,4,bicycle_rental,Docomo Bike Share,ドコモ・バイクシェア,Q55533296,https://docomo-cycle.jp/,docomo-cycle,yes,yes,0,1
355,35.167547,136.879824,138,相鉄フレッサイン名古屋駅新幹線口,,138.相鉄フレッサイン名古屋駅新幹線口,465,9,bicycle_rental,Docomo Bike Share,ドコモ・バイクシェア,Q55533296,https://docomo-cycle.jp/,docomo-cycle,yes,yes,0,0
356,35.176899,136.927635,139,名鉄協商パーキング筒井2丁目第3,,139.名鉄協商パーキング筒井2丁目第3,466,4,bicycle_rental,Docomo Bike Share,ドコモ・バイクシェア,Q55533296,https://docomo-cycle.jp/,docomo-cycle,yes,yes,1,1
357,35.707968,139.663519,N3-08,中野区役所(西側),,N3-08.中野区役所(西側),467,6,bicycle_rental,Docomo Bike Share,ドコモ・バイクシェア,Q55533296,https://docomo-cycle.jp/,docomo-cycle,yes,yes,2,1
358,35.708259,139.663829,N3-09,中野区役所(北側),,N3-09.中野区役所(北側),468,5,bicycle_rental,Docomo Bike Share,ドコモ・バイクシェア,Q55533296,https://docomo-cycle.jp/,docomo-cycle,yes,yes,2,1
359,35.702659,139.662563,N3-10,エーエスホームズⅡ駐車場,,N3-10.エーエスホームズⅡ駐車場,469,7,bicycle_rental,Docomo Bike Share,ドコモ・バイクシェア,Q55533296,https://docomo-cycle.jp/,docomo-cycle,yes,yes,2,1
360,35.634019,139.719749,I1-91,アクロス目黒タワー,,I1-91.アクロス目黒タワー,470,10,bicycle_rental,Docomo Bike Share,ドコモ・バイクシェア,Q55533296,https://docomo-cycle.jp/,docomo-cycle,yes,yes,1,2
361,34.619819,135.53802,R-25,マックスバリュ駒川中野店,,R-25.マックスバリュ駒川中野店,473,7,bicycle_rental,Docomo Bike Share,ドコモ・バイクシェア,Q55533296,https://docomo-cycle.jp/,docomo-cycle,yes,yes,0,0
362,35.178861,136.890162,140,ディアレイシャス浅間町,,140.ディアレイシャス浅間町,475,5,bicycle_rental,Docomo Bike Share,ドコモ・バイクシェア,Q55533296,https://docomo-cycle.jp/,docomo-cycle,yes,yes,1,1
363,38.25802,140.86479,112,La Douceur片平,,112.La Douceur片平,477,7,bicycle_rental,Docomo Bike Share,ドコモ・バイクシェア,Q55533296,https://docomo-cycle.jp/,docomo-cycle,yes,yes,2,2
364,35.462579,139.624539,130,横濱ゲートタワー,,130.横濱ゲートタワー,479,7,bicycle_rental,Docomo Bike Share,ドコモ・バイクシェア,Q55533296,https://docomo-cycle.jp/,docomo-cycle,yes,yes,1,1
365,35.67518,139.77364,B2-17,アーバネックス八丁堀,,B2-17.アーバネックス八丁堀,480,3,bicycle_rental,Docomo Bike Share,ドコモ・バイクシェア,Q55533296,https://docomo-cycle.jp/,docomo-cycle,yes,yes,2,2
366,35.67464,139.67876,M6-16,パールマンション,,M6-16.パールマンション,482,1,bicycle_rental,Docomo Bike Share,ドコモ・バイクシェア,Q55533296,https://docomo-cycle.jp/,docomo-cycle,yes,yes,2,1
367,35.163477,136.922984,141,ファミリーマート名古屋新栄店,,141.ファミリーマート名古屋新栄店,483,4,bicycle_rental,Docomo Bike Share,ドコモ・バイクシェア,Q55533296,https://docomo-cycle.jp/,docomo-cycle,yes,yes,0,1
368,38.242667,140.908743,116,ドコモショップ宮城の萩大通り店,,116.ドコモショップ宮城の萩大通り店,484,19,bicycle_rental,Docomo Bike Share,ドコモ・バイクシェア,Q55533296,https://docomo-cycle.jp/,docomo-cycle,yes,yes,2,2
369,35.644798,139.752697,C5-43,オアーゼ芝浦MJビル,,C5-43.オアーゼ芝浦MJビル,485,9,bicycle_rental,Docomo Bike Share,ドコモ・バイクシェア,Q55533296,https://docomo-cycle.jp/,docomo-cycle,yes,yes,1,2
370,34.706332,135.487728,A-37,東通ビル,,A-37.東通ビル,486,3,bicycle_rental,Docomo Bike Share,ドコモ・バイクシェア,Q55533296,https://docomo-cycle.jp/,docomo-cycle,yes,yes,0,0
371,35.634441,139.687186,J1-44,五本木2丁目,,J1-44.五本木2丁目,487,8,bicycle_rental,Docomo Bike Share,ドコモ・バイクシェア,Q55533296,https://docomo-cycle.jp/,docomo-cycle,yes,yes,1,1
372,35.690958,139.759876,A2-27,丸紅ビル,,A2-27.丸紅ビル,490,8,bicycle_rental,Docomo Bike Share,ドコモ・バイクシェア,Q55533296,https://docomo-cycle.jp/,docomo-cycle,yes,yes,2,2
373,35.675739,139.763712,A4-14,東京国際フォーラム（有楽町駅ガード側）,,A4-14.東京国際フォーラム（有楽町駅ガード側）,491,8,bicycle_rental,Docomo Bike Share,ドコモ・バイクシェア,Q55533296,https://docomo-cycle.jp/,docomo-cycle,yes,yes,2,2
374,35.690657,139.73255,D2-17,genten市ヶ谷店,,D2-17.genten市ヶ谷店,492,10,bicycle_rental,Docomo Bike Share,ドコモ・バイクシェア,Q55533296,https://docomo-cycle.jp/,docomo-cycle,yes,yes,2,2
375,35.70328,139.62981,O4-01,阿佐ヶ谷南公園,,O4-01.阿佐ヶ谷南公園,498,3,bicycle_rental,Docomo Bike Share,ドコモ・バイクシェア,Q55533296,https://docomo-cycle.jp/,docomo-cycle,yes,yes,2,1
376,34.705161,135.51075,A-38,北区役所,,A-38.北区役所,499,11,bicycle_rental,Docomo Bike Share,ドコモ・バイクシェア,Q55533296,https://docomo-cycle.jp/,docomo-cycle,yes,yes,0,0
377,34.71558,135.508612,A-39,大淀コミュニティセンター,,A-39.大淀コミュニティセンター,516,9,bicycle_rental,Docomo Bike Share,ドコモ・バイクシェア,Q55533296,https://docomo-cycle.jp/,docomo-cycle,yes,yes,0,0
378,34.697616,135.491634,A-40,西梅田公園,,A-40.西梅田公園,517,13,bicycle_rental,Docomo Bike Share,ドコモ・バイクシェア,Q55533296,https://docomo-cycle.jp/,docomo-cycle,yes,yes,0,0
379,34.695202,135.498814,A-41,堂島公園,,A-41.堂島公園,518,4,bicycle_rental,Docomo Bike Share,ドコモ・バイクシェア,Q55533296,https://docomo-cycle.jp/,docomo-cycle,yes,yes,0,0
380,34.626514,135.53111,R-26,今川駅,,R-26.今川駅,523,5,bicycle_rental,Docomo Bike Share,ドコモ・バイクシェア,Q55533296,https://docomo-cycle.jp/,docomo-cycle,yes,yes,0,0
381,34.605222,135.532747,R-27,矢田駅,,R-27.矢田駅,524,5,bicycle_rental,Docomo Bike Share,ドコモ・バイクシェア,Q55533296,https://docomo-cycle.jp/,docomo-cycle,yes,yes,0,0
382,35.7266,139.62948,N1-05,大野ハイツ,,N1-05.大野ハイツ,535,5,bicycle_rental,Docomo Bike Share,ドコモ・バイクシェア,Q55533296,https://docomo-cycle.jp/,docomo-cycle,yes,yes,2,1
383,35.711501,139.672761,N3-11,上高田区民活動センター,,N3-11.上高田区民活動センター,537,5,bicycle_rental,Docomo Bike Share,ドコモ・バイクシェア,Q55533296,https://docomo-cycle.jp/,docomo-cycle,yes,yes,2,1
384,35.714292,139.663327,N2-07,新井区民活動センター,,N2-07.新井区民活動センター,538,5,bicycle_rental,Docomo Bike Share,ドコモ・バイクシェア,Q55533296,https://docomo-cycle.jp/,docomo-cycle,yes,yes,2,1
385,35.713562,139.649075,N1-06,大和区民活動センター,,N1-06.大和区民活動センター,539,5,bicycle_rental,Docomo Bike Share,ドコモ・バイクシェア,Q55533296,https://docomo-cycle.jp/,docomo-cycle,yes,yes,2,1
386,35.702414,139.667327,N3-12,桃園区民活動センター,,N3-12.桃園区民活動センター,541,3,bicycle_rental,Docomo Bike Share,ドコモ・バイクシェア,Q55533296,https://docomo-cycle.jp/,docomo-cycle,yes,yes,2,1
387,34.695205,135.494106,A-21,中央電気倶楽部,,A-21.中央電気倶楽部,542,27,bicycle_rental,Docomo Bike Share,ドコモ・バイクシェア,Q55533296,https://docomo-cycle.jp/,docomo-cycle,yes,yes,0,0
388,34.669815,135.498586,B-16,グランドサウナ心斎橋,,B-16.グランドサウナ心斎橋,543,4,bicycle_rental,Docomo Bike Share,ドコモ・バイクシェア,Q55533296,https://docomo-cycle.jp/,docomo-cycle,yes,yes,0,0
389,35.170365,136.893986,142,ＤＰスクエア錦,,142.ＤＰスクエア錦,544,7,bicycle_rental,Docomo Bike Share,ドコモ・バイクシェア,Q55533296,https://docomo-cycle.jp/,docomo-cycle,yes,yes,1,1
390,34.37228,132.43495,124,マックスバリュ江波店,,124.マックスバリュ江波店,545,6,bicycle_rental,Docomo Bike Share,ドコモ・バイクシェア,Q55533296,https://docomo-cycle.jp/,docomo-cycle,yes,yes,0,0
391,35.560125,139.71569,K1-120,蒲田駅消費者生活センター横自転車駐車場 屋上部,,K1-120.蒲田駅消費者生活センター横自転車駐車場 屋上部,547,17,bicycle_rental,Docomo Bike Share,ドコモ・バイクシェア,Q55533296,https://docomo-cycle.jp/,docomo-cycle,yes,yes,1,2
392,35.655135,139.744449,C2-24,Dash Living HigashiAzabu,,C2-24.Dash Living HigashiAzabu,548,6,bicycle_rental,Docomo Bike Share,ドコモ・バイクシェア,Q55533296,https://docomo-cycle.jp/,docomo-cycle,yes,yes,1,2
393,35.644794,139.755688,C5-45,パークアクシス芝浦キャナル,,C5-45.パークアクシス芝浦キャナル,549,8,bicycle_rental,Docomo Bike Share,ドコモ・バイクシェア,Q55533296,https://docomo-cycle.jp/,docomo-cycle,yes,yes,1,2
394,36.10269,139.795435,,道の駅さかい,,道の駅さかい,550,6,bicycle_rental,Docomo Bike Share,ドコモ・バイクシェア,Q55533296,https://docomo-cycle.jp/,docomo-cycle,yes,yes,2,2
395,36.120995,139.810208,,境町高速バスターミナル（東京駅）,,境町高速バスターミナル（東京駅）,558,6,bicycle_rental,Docomo Bike Share,ドコモ・バイクシェア,Q55533296,https://docomo-cycle.jp/,docomo-cycle,yes,yes,2,2
396,36.129431,139.80863,,ホテルスタンバイリーグさかい,,ホテルスタンバイリーグさかい,559,5,bicycle_rental,Docomo Bike Share,ドコモ・バイクシェア,Q55533296,https://docomo-cycle.jp/,docomo-cycle,yes,yes,2,2
397,36.108412,139.795149,,境町役場,,境町役場,560,5,bicycle_rental,Docomo Bike Share,ドコモ・バイクシェア,Q55533296,https://docomo-cycle.jp/,docomo-cycle,yes,yes,2,2
398,36.118364,139.798543,さかい子育て支援センターS,WORK＋KIDS,,さかい子育て支援センターS-WORK＋KIDS,561,6,bicycle_rental,Docomo Bike Share,ドコモ・バイクシェア,Q55533296,https://docomo-cycle.jp/,docomo-cycle,yes,yes,2,2
399,36.104882,139.790187,,河岸の駅さかい,,河岸の駅さかい,562,4,bicycle_rental,Docomo Bike Share,ドコモ・バイクシェア,Q55533296,https://docomo-cycle.jp/,docomo-cycle,yes,yes,2,2
400,35.192953,136.938285,146,名鉄協商パーキング大曽根第11,,146.名鉄協商パーキング大曽根第11,563,4,bicycle_rental,Docomo Bike Share,ドコモ・バイクシェア,Q55533296,https://docomo-cycle.jp/,docomo-cycle,yes,yes,1,1
401,35.173935,136.918587,147,名鉄協商パーキング東桜第2,,147.名鉄協商パーキング東桜第2,564,3,bicycle_rental,Docomo Bike Share,ドコモ・バイクシェア,Q55533296,https://docomo-cycle.jp/,docomo-cycle,yes,yes,1,1
402,35.68802,139.78112,B1-26,Dash Living Nihonbashi,,B1-26.Dash Living Nihonbashi,565,4,bicycle_rental,Docomo Bike Share,ドコモ・バイクシェア,Q55533296,https://docomo-cycle.jp/,docomo-cycle,yes,yes,2,2
403,35.595873,139.75134,I1-92,中央海浜公園前交差点（北側）,,I1-92.中央海浜公園前交差点（北側）,566,10,bicycle_rental,Docomo Bike Share,ドコモ・バイクシェア,Q55533296,https://docomo-cycle.jp/,docomo-cycle,yes,yes,1,2
404,35.595498,139.750654,I1-93,中央海浜公園前交差点（南側）,,I1-93.中央海浜公園前交差点（南側）,567,6,bicycle_rental,Docomo Bike Share,ドコモ・バイクシェア,Q55533296,https://docomo-cycle.jp/,docomo-cycle,yes,yes,1,2
405,35.174062,136.896308,148,丸の内Ｏｎｅビルディング,,148.丸の内Ｏｎｅビルディング,569,4,bicycle_rental,Docomo Bike Share,ドコモ・バイクシェア,Q55533296,https://docomo-cycle.jp/,docomo-cycle,yes,yes,1,1
406,34.682648,135.505842,B-38, 辰野南本町ビル,,B-38. 辰野南本町ビル,571,6,bicycle_rental,Docomo Bike Share,ドコモ・バイクシェア,Q55533296,https://docomo-cycle.jp/,docomo-cycle,yes,yes,0,0
407,34.680702,135.50337,B-55, 船場エクセルビル,,B-55. 船場エクセルビル,572,9,bicycle_rental,Docomo Bike Share,ドコモ・バイクシェア,Q55533296,https://docomo-cycle.jp/,docomo-cycle,yes,yes,0,0
408,34.680476,135.502578,B-56, Tパーク久太郎西,,B-56. Tパーク久太郎西,573,4,bicycle_rental,Docomo Bike Share,ドコモ・バイクシェア,Q55533296,https://docomo-cycle.jp/,docomo-cycle,yes,yes,0,0
409,34.679082,135.515149,B-57, Tパーク内久宝寺,,B-57. Tパーク内久宝寺,574,5,bicycle_rental,Docomo Bike Share,ドコモ・バイクシェア,Q55533296,https://docomo-cycle.jp/,docomo-cycle,yes,yes,0,0
410,35.161018,136.895786,145,リシュドール大須,,145.リシュドール大須,577,5,bicycle_rental,Docomo Bike Share,ドコモ・バイクシェア,Q55533296,https://docomo-cycle.jp/,docomo-cycle,yes,yes,0,1
411,35.163661,136.94054,149,グレンパーク今池南EAST,,149.グレンパーク今池南EAST,578,7,bicycle_rental,Docomo Bike Share,ドコモ・バイクシェア,Q55533296,https://docomo-cycle.jp/,docomo-cycle,yes,yes,0,1
412,35.148852,136.898761,151,ファミリーマート古渡町店,,151.ファミリーマート古渡町店,580,5,bicycle_rental,Docomo Bike Share,ドコモ・バイクシェア,Q55533296,https://docomo-cycle.jp/,docomo-cycle,yes,yes,0,1
413,35.181815,136.887906,144,サンモール浅間,,144.サンモール浅間,581,4,bicycle_rental,Docomo Bike Share,ドコモ・バイクシェア,Q55533296,https://docomo-cycle.jp/,docomo-cycle,yes,yes,1,1
414,34.682321,135.506352,B-31,イケマン　センバ店,,B-31.イケマン　センバ店,587,4,bicycle_rental,Docomo Bike Share,ドコモ・バイクシェア,Q55533296,https://docomo-cycle.jp/,docomo-cycle,yes,yes,0,0
415,35.72077,139.6045,O1-01,上瀬戸公園,,O1-01.上瀬戸公園,591,5,bicycle_rental,Docomo Bike Share,ドコモ・バイクシェア,Q55533296,https://docomo-cycle.jp/,docomo-cycle,yes,yes,2,1
416,35.72424,139.61431,O1-02,井荻南地下自転車駐車場,,O1-02.井荻南地下自転車駐車場,592,14,bicycle_rental,Docomo Bike Share,ドコモ・バイクシェア,Q55533296,https://docomo-cycle.jp/,docomo-cycle,yes,yes,2,1
417,35.72489,139.62383,O1-03,LUCKY HOUSE,,O1-03.LUCKY HOUSE,593,4,bicycle_rental,Docomo Bike Share,ドコモ・バイクシェア,Q55533296,https://docomo-cycle.jp/,docomo-cycle,yes,yes,2,1
418,35.70535,139.61497,O2-01,サカエフラット荻窪,,O2-01.サカエフラット荻窪,594,12,bicycle_rental,Docomo Bike Share,ドコモ・バイクシェア,Q55533296,https://docomo-cycle.jp/,docomo-cycle,yes,yes,2,1
419,35.69575,139.62065,O3-01,西田公園,,O3-01.西田公園,595,7,bicycle_rental,Docomo Bike Share,ドコモ・バイクシェア,Q55533296,https://docomo-cycle.jp/,docomo-cycle,yes,yes,2,1
420,35.71355,139.6199,O3-02,アートメゾン荻窪,,O3-02.アートメゾン荻窪,596,8,bicycle_rental,Docomo Bike Share,ドコモ・バイクシェア,Q55533296,https://docomo-cycle.jp/,docomo-cycle,yes,yes,2,1
421,35.71013,139.61194,O3-03,桃井1丁目5番地,,O3-03.桃井1丁目5番地,597,8,bicycle_rental,Docomo Bike Share,ドコモ・バイクシェア,Q55533296,https://docomo-cycle.jp/,docomo-cycle,yes,yes,2,1
422,35.69638,139.63482,O4-02,成宗さくら公園,,O4-02.成宗さくら公園,598,10,bicycle_rental,Docomo Bike Share,ドコモ・バイクシェア,Q55533296,https://docomo-cycle.jp/,docomo-cycle,yes,yes,2,1
423,35.71038,139.64519,O5-01,朝霞ハイツ,,O5-01.朝霞ハイツ,599,10,bicycle_rental,Docomo Bike Share,ドコモ・バイクシェア,Q55533296,https://docomo-cycle.jp/,docomo-cycle,yes,yes,2,1
424,35.67912,139.61074,O6-01,高井戸みどり公園,,O6-01.高井戸みどり公園,601,9,bicycle_rental,Docomo Bike Share,ドコモ・バイクシェア,Q55533296,https://docomo-cycle.jp/,docomo-cycle,yes,yes,2,1
425,35.68296,139.60861,O6-02,富士見ヶ丘南自転車駐車場,,O6-02.富士見ヶ丘南自転車駐車場,602,8,bicycle_rental,Docomo Bike Share,ドコモ・バイクシェア,Q55533296,https://docomo-cycle.jp/,docomo-cycle,yes,yes,2,1
426,35.68073,139.62803,O6-03,みなみ荘,,O6-03.みなみ荘,603,10,bicycle_rental,Docomo Bike Share,ドコモ・バイクシェア,Q55533296,https://docomo-cycle.jp/,docomo-cycle,yes,yes,2,1
427,35.67834,139.62711,O6-04,柏の宮公園,,O6-04.柏の宮公園,604,5,bicycle_rental,Docomo Bike Share,ドコモ・バイクシェア,Q55533296,https://docomo-cycle.jp/,docomo-cycle,yes,yes,2,1
428,35.67753,139.63667,O7-01,西永福公園,,O7-01.西永福公園,605,5,bicycle_rental,Docomo Bike Share,ドコモ・バイクシェア,Q55533296,https://docomo-cycle.jp/,docomo-cycle,yes,yes,2,1
429,35.67121,139.64145,O7-02,永福中央公園,,O7-02.永福中央公園,606,10,bicycle_rental,Docomo Bike Share,ドコモ・バイクシェア,Q55533296,https://docomo-cycle.jp/,docomo-cycle,yes,yes,2,1
430,35.67156,139.64609,O7-03,永福町西幸モータープール東,,O7-03.永福町西幸モータープール東,607,11,bicycle_rental,Docomo Bike Share,ドコモ・バイクシェア,Q55533296,https://docomo-cycle.jp/,docomo-cycle,yes,yes,2,1
431,35.67161,139.64527,O7-04,永福町西幸モータープール西,,O7-04.永福町西幸モータープール西,608,8,bicycle_rental,Docomo Bike Share,ドコモ・バイクシェア,Q55533296,https://docomo-cycle.jp/,docomo-cycle,yes,yes,2,1
432,35.139722,136.91022,152,名鉄協商パーキング池内町,,152.名鉄協商パーキング池内町,609,4,bicycle_rental,Docomo Bike Share,ドコモ・バイクシェア,Q55533296,https://docomo-cycle.jp/,docomo-cycle,yes,yes,0,1
433,35.63767,139.7045,J1-45,プラウド中目黒,,J1-45.プラウド中目黒,611,4,bicycle_rental,Docomo Bike Share,ドコモ・バイクシェア,Q55533296,https://docomo-cycle.jp/,docomo-cycle,yes,yes,1,1
434,35.632735,139.683899,J1-46,五本木西みどり街かど公園,,J1-46.五本木西みどり街かど公園,612,4,bicycle_rental,Docomo Bike Share,ドコモ・バイクシェア,Q55533296,https://docomo-cycle.jp/,docomo-cycle,yes,yes,1,1
435,35.61847,139.70019,J1-47,本町みなみ街かど公園,,J1-47.本町みなみ街かど公園,613,18,bicycle_rental,Docomo Bike Share,ドコモ・バイクシェア,Q55533296,https://docomo-cycle.jp/,docomo-cycle,yes,yes,1,1
436,26.097767,127.677902,15,琉球ガラス村,,15.琉球ガラス村,615,3,bicycle_rental,Docomo Bike Share,ドコモ・バイクシェア,Q55533296,https://docomo-cycle.jp/,docomo-cycle,yes,yes,0,0
437,34.616758,135.525257,R-28,南田辺住宅,,R-28.南田辺住宅,617,10,bicycle_rental,Docomo Bike Share,ドコモ・バイクシェア,Q55533296,https://docomo-cycle.jp/,docomo-cycle,yes,yes,0,0
438,35.64372,139.68777,J1-48,グランドエクセル祐天寺,,J1-48.グランドエクセル祐天寺,618,7,bicycle_rental,Docomo Bike Share,ドコモ・バイクシェア,Q55533296,https://docomo-cycle.jp/,docomo-cycle,yes,yes,1,1
439,34.616164,135.533139,R-29,針中野駅,,R-29.針中野駅,619,5,bicycle_rental,Docomo Bike Share,ドコモ・バイクシェア,Q55533296,https://docomo-cycle.jp/,docomo-cycle,yes,yes,0,0
440,35.175432,136.911707,157,名鉄協商パーキング　泉1丁目第6,,157.名鉄協商パーキング　泉1丁目第6,622,5,bicycle_rental,Docomo Bike Share,ドコモ・バイクシェア,Q55533296,https://docomo-cycle.jp/,docomo-cycle,yes,yes,1,1
441,35.468676,139.625838,131,横浜みなと第一生命ビル,,131.横浜みなと第一生命ビル,623,9,bicycle_rental,Docomo Bike Share,ドコモ・バイクシェア,Q55533296,https://docomo-cycle.jp/,docomo-cycle,yes,yes,1,1
442,34.38287,132.48445,125, ファミリーマート東雲本町店,,125. ファミリーマート東雲本町店,624,3,bicycle_rental,Docomo Bike Share,ドコモ・バイクシェア,Q55533296,https://docomo-cycle.jp/,docomo-cycle,yes,yes,0,0
443,35.186386,136.944916,154,イオンモールナゴヤドーム前１,,154.イオンモールナゴヤドーム前１,625,6,bicycle_rental,Docomo Bike Share,ドコモ・バイクシェア,Q55533296,https://docomo-cycle.jp/,docomo-cycle,yes,yes,1,1
444,34.3979,132.428764,126, もみじ銀行己斐本町ATM,,126. もみじ銀行己斐本町ATM,626,20,bicycle_rental,Docomo Bike Share,ドコモ・バイクシェア,Q55533296,https://docomo-cycle.jp/,docomo-cycle,yes,yes,0,0
445,35.18829,136.944965,155,イオンモールナゴヤドーム前２,,155.イオンモールナゴヤドーム前２,627,5,bicycle_rental,Docomo Bike Share,ドコモ・バイクシェア,Q55533296,https://docomo-cycle.jp/,docomo-cycle,yes,yes,1,1
446,35.187779,136.942942,156,イオンモールナゴヤドーム前3,,156.イオンモールナゴヤドーム前3,628,3,bicycle_rental,Docomo Bike Share,ドコモ・バイクシェア,Q55533296,https://docomo-cycle.jp/,docomo-cycle,yes,yes,1,1
447,35.66616,139.70458,M4-13,J-cube,,M4-13.J-cube,629,2,bicycle_rental,Docomo Bike Share,ドコモ・バイクシェア,Q55533296,https://docomo-cycle.jp/,docomo-cycle,yes,yes,1,1
448,35.163802,136.940147,150,グレンパーク今池南WEST,,150.グレンパーク今池南WEST,630,4,bicycle_rental,Docomo Bike Share,ドコモ・バイクシェア,Q55533296,https://docomo-cycle.jp/,docomo-cycle,yes,yes,0,1
449,35.686389,139.769237,A4-15,TOKIWAブリッジ,,A4-15.TOKIWAブリッジ,631,9,bicycle_rental,Docomo Bike Share,ドコモ・バイクシェア,Q55533296,https://docomo-cycle.jp/,docomo-cycle,yes,yes,2,2
450,34.39552,132.47295,127,広島駅南口第二駐輪場(仮設),,127.広島駅南口第二駐輪場(仮設),632,9,bicycle_rental,Docomo Bike Share,ドコモ・バイクシェア,Q55533296,https://docomo-cycle.jp/,docomo-cycle,yes,yes,0,0
451,35.728893,139.670119,N2-08,江古田区民活動センター,,N2-08.江古田区民活動センター,633,4,bicycle_rental,Docomo Bike Share,ドコモ・バイクシェア,Q55533296,https://docomo-cycle.jp/,docomo-cycle,yes,yes,2,1
452,35.66288,139.78329,B4-24,ミュプレ月島,,B4-24.ミュプレ月島,635,8,bicycle_rental,Docomo Bike Share,ドコモ・バイクシェア,Q55533296,https://docomo-cycle.jp/,docomo-cycle,yes,yes,1,2
453,35.16969,136.924072,158,ファミリーマート名古屋新栄二丁目店,,158.ファミリーマート名古屋新栄二丁目店,638,3,bicycle_rental,Docomo Bike Share,ドコモ・バイクシェア,Q55533296,https://docomo-cycle.jp/,docomo-cycle,yes,yes,1,1
454,35.162506,136.93874,159,ファミリーマート千種今池南店,,159.ファミリーマート千種今池南店,640,5,bicycle_rental,Docomo Bike Share,ドコモ・バイクシェア,Q55533296,https://docomo-cycle.jp/,docomo-cycle,yes,yes,0,1
455,35.150874,136.910275,153,CSP NAGOYA,,153.CSP NAGOYA,641,5,bicycle_rental,Docomo Bike Share,ドコモ・バイクシェア,Q55533296,https://docomo-cycle.jp/,docomo-cycle,yes,yes,0,1
456,35.540579,139.754506,K1-121,東京広域ポート（川崎LiSE）,,K1-121.東京広域ポート（川崎LiSE）,643,10,bicycle_rental,Docomo Bike Share,ドコモ・バイクシェア,Q55533296,https://docomo-cycle.jp/,docomo-cycle,yes,yes,1,2
457,35.581347,139.662265,K1-122,東急新丸子駅駐輪場,,K1-122.東急新丸子駅駐輪場,644,12,bicycle_rental,Docomo Bike Share,ドコモ・バイクシェア,Q55533296,https://docomo-cycle.jp/,docomo-cycle,yes,yes,1,1
458,35.577794,139.660751,K1-123,東急新丸子駅（東）駐輪場,,K1-123.東急新丸子駅（東）駐輪場,645,11,bicycle_rental,Docomo Bike Share,ドコモ・バイクシェア,Q55533296,https://docomo-cycle.jp/,docomo-cycle,yes,yes,1,1
459,35.700052,139.673715,N3-13,中部すこやか福祉センター,,N3-13.中部すこやか福祉センター,647,5,bicycle_rental,Docomo Bike Share,ドコモ・バイクシェア,Q55533296,https://docomo-cycle.jp/,docomo-cycle,yes,yes,2,1
460,35.713227,139.680966,N3-14,ヴィラソンサ落合,,N3-14.ヴィラソンサ落合,648,5,bicycle_rental,Docomo Bike Share,ドコモ・バイクシェア,Q55533296,https://docomo-cycle.jp/,docomo-cycle,yes,yes,2,1
461,35.70781,139.732227,E2-13,デルックス文京神楽坂,,E2-13.デルックス文京神楽坂,649,5,bicycle_rental,Docomo Bike Share,ドコモ・バイクシェア,Q55533296,https://docomo-cycle.jp/,docomo-cycle,yes,yes,2,2
462,35.4389,139.64037,132,デュフレ横浜石川町,,132.デュフレ横浜石川町,650,5,bicycle_rental,Docomo Bike Share,ドコモ・バイクシェア,Q55533296,https://docomo-cycle.jp/,docomo-cycle,yes,yes,1,1
463,35.564161,139.695187,K1-124,矢口2丁目,,K1-124.矢口2丁目,652,6,bicycle_rental,Docomo Bike Share,ドコモ・バイクシェア,Q55533296,https://docomo-cycle.jp/,docomo-cycle,yes,yes,1,1
464,35.165312,136.864981,161,扇港電機,,161.扇港電機,655,3,bicycle_rental,Docomo Bike Share,ドコモ・バイクシェア,Q55533296,https://docomo-cycle.jp/,docomo-cycle,yes,yes,0,0
465,35.16552,136.917535,162,名鉄協商パーキング新栄第２,,162.名鉄協商パーキング新栄第２,656,3,bicycle_rental,Docomo Bike Share,ドコモ・バイクシェア,Q55533296,https://docomo-cycle.jp/,docomo-cycle,yes,yes,0,1
466,34.707725,135.489549,A-10,大阪ふくちぁん餃子大淀店,,A-10.大阪ふくちぁん餃子大淀店,658,11,bicycle_rental,Docomo Bike Share,ドコモ・バイクシェア,Q55533296,https://docomo-cycle.jp/,docomo-cycle,yes,yes,0,0
467,34.61077,135.514093,R-30,地下鉄長居駅地下駐輪場,,R-30.地下鉄長居駅地下駐輪場,660,9,bicycle_rental,Docomo Bike Share,ドコモ・バイクシェア,Q55533296,https://docomo-cycle.jp/,docomo-cycle,yes,yes,0,0
468,34.628048,135.52579,R-31,地下鉄田辺駅,,R-31.地下鉄田辺駅,661,9,bicycle_rental,Docomo Bike Share,ドコモ・バイクシェア,Q55533296,https://docomo-cycle.jp/,docomo-cycle,yes,yes,0,0
469,35.687531,139.60439,O6-05,コージーコート久我山,,O6-05.コージーコート久我山,662,5,bicycle_rental,Docomo Bike Share,ドコモ・バイクシェア,Q55533296,https://docomo-cycle.jp/,docomo-cycle,yes,yes,2,1
470,35.680849,139.65626,O7-05,ジーベック方南町,,O7-05.ジーベック方南町,666,4,bicycle_rental,Docomo Bike Share,ドコモ・バイクシェア,Q55533296,https://docomo-cycle.jp/,docomo-cycle,yes,yes,2,1
471,35.638864,139.696568,J1-49,伊勢脇公園,,J1-49.伊勢脇公園,667,4,bicycle_rental,Docomo Bike Share,ドコモ・バイクシェア,Q55533296,https://docomo-cycle.jp/,docomo-cycle,yes,yes,1,1
472,35.609958,139.684087,J1-50,大岡山公園,,J1-50.大岡山公園,668,3,bicycle_rental,Docomo Bike Share,ドコモ・バイクシェア,Q55533296,https://docomo-cycle.jp/,docomo-cycle,yes,yes,1,1
473,35.650627,139.687228,J1-51,池尻大橋駅東口駐輪場,,J1-51.池尻大橋駅東口駐輪場,669,3,bicycle_rental,Docomo Bike Share,ドコモ・バイクシェア,Q55533296,https://docomo-cycle.jp/,docomo-cycle,yes,yes,1,1
474,35.171655,136.891745,160,名駅東ビル,,160.名駅東ビル,670,6,bicycle_rental,Docomo Bike Share,ドコモ・バイクシェア,Q55533296,https://docomo-cycle.jp/,docomo-cycle,yes,yes,1,1
475,35.17128,136.887659,165,名古屋ビルディング桜館,,165.名古屋ビルディング桜館,671,5,bicycle_rental,Docomo Bike Share,ドコモ・バイクシェア,Q55533296,https://docomo-cycle.jp/,docomo-cycle,yes,yes,1,1
476,35.180024,136.896764,168,中日新聞社北館,,168.中日新聞社北館,673,8,bicycle_rental,Docomo Bike Share,ドコモ・バイクシェア,Q55533296,https://docomo-cycle.jp/,docomo-cycle,yes,yes,1,1
477,35.163163,136.884587,166,マーケットスクエアささしま,,166.マーケットスクエアささしま,674,5,bicycle_rental,Docomo Bike Share,ドコモ・バイクシェア,Q55533296,https://docomo-cycle.jp/,docomo-cycle,yes,yes,0,1
478,34.650198,135.501865,E-11,OMO7大阪 by 星野リゾート,,E-11.OMO7大阪 by 星野リゾート,675,44,bicycle_rental,Docomo Bike Share,ドコモ・バイクシェア,Q55533296,https://docomo-cycle.jp/,docomo-cycle,yes,yes,0,0
479,34.686367,135.486327,D-04,ラドゥセール中之島,,D-04.ラドゥセール中之島,677,9,bicycle_rental,Docomo Bike Share,ドコモ・バイクシェア,Q55533296,https://docomo-cycle.jp/,docomo-cycle,yes,yes,0,0
480,35.125854,136.913644,24,名鉄協商パーキング神宮前駅東街区立体駐車場,,024.名鉄協商パーキング神宮前駅東街区立体駐車場,678,3,bicycle_rental,Docomo Bike Share,ドコモ・バイクシェア,Q55533296,https://docomo-cycle.jp/,docomo-cycle,yes,yes,0,1
481,35.74553,139.608939,T2-42,石神井公園駅北第二自転車駐車場,,T2-42.石神井公園駅北第二自転車駐車場,679,5,bicycle_rental,Docomo Bike Share,ドコモ・バイクシェア,Q55533296,https://docomo-cycle.jp/,docomo-cycle,yes,yes,2,1
482,35.7547,139.5871,T2-43,学園通り自転車駐車場,,T2-43.学園通り自転車駐車場,680,8,bicycle_rental,Docomo Bike Share,ドコモ・バイクシェア,Q55533296,https://docomo-cycle.jp/,docomo-cycle,yes,yes,2,1
483,35.75372,139.584332,T2-44,中島橋自転車駐車場,,T2-44.中島橋自転車駐車場,681,7,bicycle_rental,Docomo Bike Share,ドコモ・バイクシェア,Q55533296,https://docomo-cycle.jp/,docomo-cycle,yes,yes,2,1
484,35.771068,139.586798,T2-45,風致地区バス停第三自転車駐車場,,T2-45.風致地区バス停第三自転車駐車場,682,7,bicycle_rental,Docomo Bike Share,ドコモ・バイクシェア,Q55533296,https://docomo-cycle.jp/,docomo-cycle,yes,yes,2,1
485,35.766491,139.587232,T2-46,大泉郵便局バス停自転車駐車場,,T2-46.大泉郵便局バス停自転車駐車場,683,9,bicycle_rental,Docomo Bike Share,ドコモ・バイクシェア,Q55533296,https://docomo-cycle.jp/,docomo-cycle,yes,yes,2,1
486,35.726523,139.5905,T2-47,上石神井駅北第二自転車駐車場,,T2-47.上石神井駅北第二自転車駐車場,684,10,bicycle_rental,Docomo Bike Share,ドコモ・バイクシェア,Q55533296,https://docomo-cycle.jp/,docomo-cycle,yes,yes,2,1
487,35.726064,139.578015,T2-48,武蔵関駅南第二自転車駐車場,,T2-48.武蔵関駅南第二自転車駐車場,685,4,bicycle_rental,Docomo Bike Share,ドコモ・バイクシェア,Q55533296,https://docomo-cycle.jp/,docomo-cycle,yes,yes,2,1
488,35.751438,139.641265,T3-01,練馬春日町駅自転車駐車場,,T3-01.練馬春日町駅自転車駐車場,686,7,bicycle_rental,Docomo Bike Share,ドコモ・バイクシェア,Q55533296,https://docomo-cycle.jp/,docomo-cycle,yes,yes,2,1
489,35.756846,139.652154,T3-02,早宮第二自転車駐車場,,T3-02.早宮第二自転車駐車場,687,11,bicycle_rental,Docomo Bike Share,ドコモ・バイクシェア,Q55533296,https://docomo-cycle.jp/,docomo-cycle,yes,yes,2,1
490,35.740378,139.667502,T3-03,新桜台駅自転車駐車場,,T3-03.新桜台駅自転車駐車場,688,7,bicycle_rental,Docomo Bike Share,ドコモ・バイクシェア,Q55533296,https://docomo-cycle.jp/,docomo-cycle,yes,yes,2,1
491,35.462961,139.632213,133,プライムコーストみなとみらい,,133.プライムコーストみなとみらい,689,14,bicycle_rental,Docomo Bike Share,ドコモ・バイクシェア,Q55533296,https://docomo-cycle.jp/,docomo-cycle,yes,yes,1,1
492,35.05069,135.995852,2,スマート駅リンくん守山,他ポートへの返却不可,【他ポートへの返却不可】02.スマート駅リンくん守山,690,10,bicycle_rental,Docomo Bike Share,ドコモ・バイクシェア,Q55533296,https://docomo-cycle.jp/,docomo-cycle,yes,yes,0,0
493,35.022376,135.961675,3,スマート駅リンくん草津,他ポートへの返却不可,【他ポートへの返却不可】03.スマート駅リンくん草津,691,7,bicycle_rental,Docomo Bike Share,ドコモ・バイクシェア,Q55533296,https://docomo-cycle.jp/,docomo-cycle,yes,yes,0,0
494,34.706463,135.623379,4,スマート駅リンくん住道,他ポートへの返却不可,【他ポートへの返却不可】04.スマート駅リンくん住道,692,8,bicycle_rental,Docomo Bike Share,ドコモ・バイクシェア,Q55533296,https://docomo-cycle.jp/,docomo-cycle,yes,yes,0,0
495,34.73921,135.374627,7,スマート駅リンくん甲子園口,他ポートへの返却不可,【他ポートへの返却不可】07.スマート駅リンくん甲子園口,695,6,bicycle_rental,Docomo Bike Share,ドコモ・バイクシェア,Q55533296,https://docomo-cycle.jp/,docomo-cycle,yes,yes,0,0
496,34.745794,134.868956,8,スマート駅リンくん東加古川,他ポートへの返却不可,【他ポートへの返却不可】08.スマート駅リンくん東加古川,696,10,bicycle_rental,Docomo Bike Share,ドコモ・バイクシェア,Q55533296,https://docomo-cycle.jp/,docomo-cycle,yes,yes,0,0
497,34.784623,134.812013,9,スマート駅リンくん宝殿,他ポートへの返却不可,【他ポートへの返却不可】09.スマート駅リンくん宝殿,697,8,bicycle_rental,Docomo Bike Share,ドコモ・バイクシェア,Q55533296,https://docomo-cycle.jp/,docomo-cycle,yes,yes,0,0
498,35.712,139.62816,O3-04,アヴァンセ阿佐ヶ谷,,O3-04.アヴァンセ阿佐ヶ谷,698,2,bicycle_rental,Docomo Bike Share,ドコモ・バイクシェア,Q55533296,https://docomo-cycle.jp/,docomo-cycle,yes,yes,2,1
499,35.68663,139.799529,H1-163,森下公園,,H1-163.森下公園,702,5,bicycle_rental,Docomo Bike Share,ドコモ・バイクシェア,Q55533296,https://docomo-cycle.jp/,docomo-cycle,yes,yes,2,2
500,35.68546,139.80244,H1-164,森下三丁目第三児童遊園,,H1-164.森下三丁目第三児童遊園,703,19,bicycle_rental,Docomo Bike Share,ドコモ・バイクシェア,Q55533296,https://docomo-cycle.jp/,docomo-cycle,yes,yes,2,2
501,35.645155,139.744543,C1-74,札の辻スクエア,,C1-74.札の辻スクエア,704,7,bicycle_rental,Docomo Bike Share,ドコモ・バイクシェア,Q55533296,https://docomo-cycle.jp/,docomo-cycle,yes,yes,1,2
502,35.559286,139.722611,K1-127,第二石井ビル,,K1-127.第二石井ビル,705,22,bicycle_rental,Docomo Bike Share,ドコモ・バイクシェア,Q55533296,https://docomo-cycle.jp/,docomo-cycle,yes,yes,1,2
503,35.637765,139.739128,C4-13,コシダコネクトビル,,C4-13.コシダコネクトビル,706,12,bicycle_rental,Docomo Bike Share,ドコモ・バイクシェア,Q55533296,https://docomo-cycle.jp/,docomo-cycle,yes,yes,1,2
504,35.630961,139.746875,C5-46,ウエリスアーバン品川タワー,,C5-46.ウエリスアーバン品川タワー,707,19,bicycle_rental,Docomo Bike Share,ドコモ・バイクシェア,Q55533296,https://docomo-cycle.jp/,docomo-cycle,yes,yes,1,2
505,35.191454,136.892431,169,名鉄協商パーキング城西4丁目第6,,169.名鉄協商パーキング城西4丁目第6,708,6,bicycle_rental,Docomo Bike Share,ドコモ・バイクシェア,Q55533296,https://docomo-cycle.jp/,docomo-cycle,yes,yes,1,1
506,35.197679,136.920735,170,ゴールド,,170.ゴールド,709,3,bicycle_rental,Docomo Bike Share,ドコモ・バイクシェア,Q55533296,https://docomo-cycle.jp/,docomo-cycle,yes,yes,1,1
507,38.26229,140.86455,120,HF 西公園レジデンス,,120.HF 西公園レジデンス,711,5,bicycle_rental,Docomo Bike Share,ドコモ・バイクシェア,Q55533296,https://docomo-cycle.jp/,docomo-cycle,yes,yes,2,2
508,35.68973,139.77598,B1-27,日本橋本町4丁目,,B1-27.日本橋本町4丁目,712,28,bicycle_rental,Docomo Bike Share,ドコモ・バイクシェア,Q55533296,https://docomo-cycle.jp/,docomo-cycle,yes,yes,2,2
509,35.64514,139.71686,M3-22,森谷ビル,,M3-22.森谷ビル,713,14,bicycle_rental,Docomo Bike Share,ドコモ・バイクシェア,Q55533296,https://docomo-cycle.jp/,docomo-cycle,yes,yes,1,2
510,38.277769,140.871537,121,シティハウス堤通雨宮町,,121.シティハウス堤通雨宮町,714,5,bicycle_rental,Docomo Bike Share,ドコモ・バイクシェア,Q55533296,https://docomo-cycle.jp/,docomo-cycle,yes,yes,2,2
511,35.71046,139.6855,N3-15,ライオンズマンション中野東,,N3-15.ライオンズマンション中野東,716,3,bicycle_rental,Docomo Bike Share,ドコモ・バイクシェア,Q55533296,https://docomo-cycle.jp/,docomo-cycle,yes,yes,2,1
512,36.560359,136.653759,57,竪町通り・OMO5金沢片町,,57.竪町通り・OMO5金沢片町,717,9,bicycle_rental,Docomo Bike Share,ドコモ・バイクシェア,Q55533296,https://docomo-cycle.jp/,docomo-cycle,yes,yes,2,0
513,35.167446,136.88693,172,名鉄協商パーキング笹島第７,,172.名鉄協商パーキング笹島第７,718,5,bicycle_rental,Docomo Bike Share,ドコモ・バイクシェア,Q55533296,https://docomo-cycle.jp/,docomo-cycle,yes,yes,0,1
514,34.652541,135.506541,E-13,通天閣,,E-13.通天閣,719,4,bicycle_rental,Docomo Bike Share,ドコモ・バイクシェア,Q55533296,https://docomo-cycle.jp/,docomo-cycle,yes,yes,0,0
515,34.611293,135.520136,R-32,長居公園　長居植物園正門前,,R-32.長居公園　長居植物園正門前,720,9,bicycle_rental,Docomo Bike Share,ドコモ・バイクシェア,Q55533296,https://docomo-cycle.jp/,docomo-cycle,yes,yes,0,0
516,35.709261,139.746374,E1-18,アーバネックス小石川春日,,E1-18.アーバネックス小石川春日,721,8,bicycle_rental,Docomo Bike Share,ドコモ・バイクシェア,Q55533296,https://docomo-cycle.jp/,docomo-cycle,yes,yes,2,2
517,35.70389,139.6185,O3-05,Nちゃりパーク,,O3-05.Nちゃりパーク,722,22,bicycle_rental,Docomo Bike Share,ドコモ・バイクシェア,Q55533296,https://docomo-cycle.jp/,docomo-cycle,yes,yes,2,1
518,38.271124,140.866878,122,二日町15番,,122.二日町15番,723,11,bicycle_rental,Docomo Bike Share,ドコモ・バイクシェア,Q55533296,https://docomo-cycle.jp/,docomo-cycle,yes,yes,2,2
519,35.17094,136.909036,164,オアシス21前ステーション,,164.オアシス21前ステーション,724,3,bicycle_rental,Docomo Bike Share,ドコモ・バイクシェア,Q55533296,https://docomo-cycle.jp/,docomo-cycle,yes,yes,1,1
520,35.166151,136.891872,173,天王崎橋上流右岸広場ステーション,,173.天王崎橋上流右岸広場ステーション,725,2,bicycle_rental,Docomo Bike Share,ドコモ・バイクシェア,Q55533296,https://docomo-cycle.jp/,docomo-cycle,yes,yes,0,1
521,35.733292,139.630369,N1-07,プランドール上鷺宮,,N1-07.プランドール上鷺宮,726,7,bicycle_rental,Docomo Bike Share,ドコモ・バイクシェア,Q55533296,https://docomo-cycle.jp/,docomo-cycle,yes,yes,2,1
522,35.705686,139.642587,O5-02,馬橋ハイツ,,O5-02.馬橋ハイツ,727,6,bicycle_rental,Docomo Bike Share,ドコモ・バイクシェア,Q55533296,https://docomo-cycle.jp/,docomo-cycle,yes,yes,2,1
523,35.714616,139.625116,O3-06,アミーズ荻窪,,O3-06.アミーズ荻窪,728,4,bicycle_rental,Docomo Bike Share,ドコモ・バイクシェア,Q55533296,https://docomo-cycle.jp/,docomo-cycle,yes,yes,2,1
524,35.697265,139.649397,O5-03,新高円寺地下自転車駐輪場,,O5-03.新高円寺地下自転車駐輪場,729,15,bicycle_rental,Docomo Bike Share,ドコモ・バイクシェア,Q55533296,https://docomo-cycle.jp/,docomo-cycle,yes,yes,2,1
525,35.701318,139.825916,H1-165,亀戸梅屋敷,,H1-165.亀戸梅屋敷,730,6,bicycle_rental,Docomo Bike Share,ドコモ・バイクシェア,Q55533296,https://docomo-cycle.jp/,docomo-cycle,yes,yes,2,2
526,35.696574,139.82972,H1-166,亀戸クロック,,H1-166.亀戸クロック,731,17,bicycle_rental,Docomo Bike Share,ドコモ・バイクシェア,Q55533296,https://docomo-cycle.jp/,docomo-cycle,yes,yes,2,2
527,33.223,131.65218,98,あけのアクロスタウン,,98.あけのアクロスタウン,733,10,bicycle_rental,Docomo Bike Share,ドコモ・バイクシェア,Q55533296,https://docomo-cycle.jp/,docomo-cycle,yes,yes,0,0
528,35.146061,136.897211,174,ファミリーマート金山正木橋店,,174.ファミリーマート金山正木橋店,734,5,bicycle_rental,Docomo Bike Share,ドコモ・バイクシェア,Q55533296,https://docomo-cycle.jp/,docomo-cycle,yes,yes,0,1
529,35.714044,139.61688,O3-07,NTT井草ビル第1ポート,,O3-07.NTT井草ビル第1ポート,736,3,bicycle_rental,Docomo Bike Share,ドコモ・バイクシェア,Q55533296,https://docomo-cycle.jp/,docomo-cycle,yes,yes,2,1
530,35.714077,139.61694,O3-08,NTT井草ビル第２ポート,,O3-08.NTT井草ビル第２ポート,737,3,bicycle_rental,Docomo Bike Share,ドコモ・バイクシェア,Q55533296,https://docomo-cycle.jp/,docomo-cycle,yes,yes,2,1
531,35.714151,139.61693,O3-09,NTT井草ビル第3ポート,,O3-09.NTT井草ビル第3ポート,738,7,bicycle_rental,Docomo Bike Share,ドコモ・バイクシェア,Q55533296,https://docomo-cycle.jp/,docomo-cycle,yes,yes,2,1
532,35.716265,139.618954,O3-10,メゾンパークス,,O3-10.メゾンパークス,739,8,bicycle_rental,Docomo Bike Share,ドコモ・バイクシェア,Q55533296,https://docomo-cycle.jp/,docomo-cycle,yes,yes,2,1
533,34.64632,135.49659,I-06,ローソン鶴見橋一丁目店,,I-06.ローソン鶴見橋一丁目店,742,4,bicycle_rental,Docomo Bike Share,ドコモ・バイクシェア,Q55533296,https://docomo-cycle.jp/,docomo-cycle,yes,yes,0,0
534,35.668673,139.702816,M4-16,神宮前6丁目,,M4-16.神宮前6丁目,744,0,bicycle_rental,Docomo Bike Share,ドコモ・バイクシェア,Q55533296,https://docomo-cycle.jp/,docomo-cycle,yes,yes,1,1
535,35.181687,136.894852,175,名鉄協商パーキング三の丸１丁目,,175.名鉄協商パーキング三の丸１丁目,746,3,bicycle_rental,Docomo Bike Share,ドコモ・バイクシェア,Q55533296,https://docomo-cycle.jp/,docomo-cycle,yes,yes,1,1
536,35.163027,136.897776,176,名鉄協商パーキング伏見南第2,,176.名鉄協商パーキング伏見南第2,747,5,bicycle_rental,Docomo Bike Share,ドコモ・バイクシェア,Q55533296,https://docomo-cycle.jp/,docomo-cycle,yes,yes,0,1
537,35.189531,136.89655,177,名鉄協商パーキング数寄屋町,,177.名鉄協商パーキング数寄屋町,748,4,bicycle_rental,Docomo Bike Share,ドコモ・バイクシェア,Q55533296,https://docomo-cycle.jp/,docomo-cycle,yes,yes,1,1
538,35.688074,139.838932,H1-167,大島八丁目公園,,H1-167.大島八丁目公園,749,12,bicycle_rental,Docomo Bike Share,ドコモ・バイクシェア,Q55533296,https://docomo-cycle.jp/,docomo-cycle,yes,yes,2,2
539,35.68642,139.836151,H1-168,大島五丁目公園,,H1-168.大島五丁目公園,759,12,bicycle_rental,Docomo Bike Share,ドコモ・バイクシェア,Q55533296,https://docomo-cycle.jp/,docomo-cycle,yes,yes,2,2
540,35.656647,139.758301,C1-76,浜松町駅北口交通広場(ハマサイト前),,C1-76.浜松町駅北口交通広場(ハマサイト前),760,16,bicycle_rental,Docomo Bike Share,ドコモ・バイクシェア,Q55533296,https://docomo-cycle.jp/,docomo-cycle,yes,yes,1,2
541,35.707877,139.618926,O3-11,ハイリビング関根,,O3-11.ハイリビング関根,761,7,bicycle_rental,Docomo Bike Share,ドコモ・バイクシェア,Q55533296,https://docomo-cycle.jp/,docomo-cycle,yes,yes,2,1
542,35.629807,139.662398,J1-52,駒沢一丁目公園前,,J1-52.駒沢一丁目公園前,763,10,bicycle_rental,Docomo Bike Share,ドコモ・バイクシェア,Q55533296,https://docomo-cycle.jp/,docomo-cycle,yes,yes,1,1
543,35.678291,139.78157,B2-18,旭ビルディング,,B2-18.旭ビルディング,764,12,bicycle_rental,Docomo Bike Share,ドコモ・バイクシェア,Q55533296,https://docomo-cycle.jp/,docomo-cycle,yes,yes,2,2
544,35.665466,139.748014,C1-75,虎ノ門PFビル,,C1-75.虎ノ門PFビル,765,6,bicycle_rental,Docomo Bike Share,ドコモ・バイクシェア,Q55533296,https://docomo-cycle.jp/,docomo-cycle,yes,yes,1,2
545,35.722991,139.673048,N2-09,松山駐車場No.1,,N2-09.松山駐車場No.1,767,6,bicycle_rental,Docomo Bike Share,ドコモ・バイクシェア,Q55533296,https://docomo-cycle.jp/,docomo-cycle,yes,yes,2,1
546,35.704147,139.631955,O4-04,阿佐谷南3-43,,O4-04.阿佐谷南3-43,768,17,bicycle_rental,Docomo Bike Share,ドコモ・バイクシェア,Q55533296,https://docomo-cycle.jp/,docomo-cycle,yes,yes,2,1
547,35.707035,139.633066,O4-03,ザ・ハウス,,O4-03.ザ・ハウス,769,12,bicycle_rental,Docomo Bike Share,ドコモ・バイクシェア,Q55533296,https://docomo-cycle.jp/,docomo-cycle,yes,yes,2,1
548,35.70104,139.65839,O5-04,リヴィエール,,O5-04.リヴィエール,770,20,bicycle_rental,Docomo Bike Share,ドコモ・バイクシェア,Q55533296,https://docomo-cycle.jp/,docomo-cycle,yes,yes,2,1
549,35.152796,136.936805,178,名鉄協商パーキング御器所北第９,,178.名鉄協商パーキング御器所北第９,771,3,bicycle_rental,Docomo Bike Share,ドコモ・バイクシェア,Q55533296,https://docomo-cycle.jp/,docomo-cycle,yes,yes,0,1
550,35.612833,139.675047,J1-53,ボヌールAllamanda,,J1-53.ボヌールAllamanda,776,5,bicycle_rental,Docomo Bike Share,ドコモ・バイクシェア,Q55533296,https://docomo-cycle.jp/,docomo-cycle,yes,yes,1,1
551,35.679182,139.68596,M5-18,Luxe初台,,M5-18.Luxe初台,777,5,bicycle_rental,Docomo Bike Share,ドコモ・バイクシェア,Q55533296,https://docomo-cycle.jp/,docomo-cycle,yes,yes,2,1
552,34.691593,135.484,C-15,JCHO大阪病院,,C-15.JCHO大阪病院,778,15,bicycle_rental,Docomo Bike Share,ドコモ・バイクシェア,Q55533296,https://docomo-cycle.jp/,docomo-cycle,yes,yes,0,0
553,36.560594,136.656572,70,金沢市役所,,70.金沢市役所,779,12,bicycle_rental,Docomo Bike Share,ドコモ・バイクシェア,Q55533296,https://docomo-cycle.jp/,docomo-cycle,yes,yes,2,0
554,36.600208,136.616076,71,無量寺・アピタタウン金沢ベイ,,71.無量寺・アピタタウン金沢ベイ,780,15,bicycle_rental,Docomo Bike Share,ドコモ・バイクシェア,Q55533296,https://docomo-cycle.jp/,docomo-cycle,yes,yes,2,0
555,35.15679,136.917269,179,ファミリーマート鶴舞店,,179.ファミリーマート鶴舞店,781,6,bicycle_rental,Docomo Bike Share,ドコモ・バイクシェア,Q55533296,https://docomo-cycle.jp/,docomo-cycle,yes,yes,0,1
556,35.652151,139.698426,M2-11,鉢山町,,M2-11.鉢山町,784,15,bicycle_rental,Docomo Bike Share,ドコモ・バイクシェア,Q55533296,https://docomo-cycle.jp/,docomo-cycle,yes,yes,1,1
557,34.683089,135.438839,J-03,ローソン此花酉島三丁目店,,J-03.ローソン此花酉島三丁目店,785,14,bicycle_rental,Docomo Bike Share,ドコモ・バイクシェア,Q55533296,https://docomo-cycle.jp/,docomo-cycle,yes,yes,0,0
558,34.66852,135.491187,E-28,ミライト・ワン,,E-28.ミライト・ワン,786,4,bicycle_rental,Docomo Bike Share,ドコモ・バイクシェア,Q55533296,https://docomo-cycle.jp/,docomo-cycle,yes,yes,0,0
559,34.670472,135.495725,D-26,ローソン南堀江一丁目店,,D-26.ローソン南堀江一丁目店,787,6,bicycle_rental,Docomo Bike Share,ドコモ・バイクシェア,Q55533296,https://docomo-cycle.jp/,docomo-cycle,yes,yes,0,0
560,34.654873,135.504037,E-30,ローソン今宮戎店,,E-30.ローソン今宮戎店,788,4,bicycle_rental,Docomo Bike Share,ドコモ・バイクシェア,Q55533296,https://docomo-cycle.jp/,docomo-cycle,yes,yes,0,0
561,34.60763,135.527464,R-33,ローソン矢田一丁目店,,R-33.ローソン矢田一丁目店,789,5,bicycle_rental,Docomo Bike Share,ドコモ・バイクシェア,Q55533296,https://docomo-cycle.jp/,docomo-cycle,yes,yes,0,0
562,35.697157,139.839835,H1-169,セブンイレブン江東亀戸7丁目東店,,H1-169.セブンイレブン江東亀戸7丁目東店,790,6,bicycle_rental,Docomo Bike Share,ドコモ・バイクシェア,Q55533296,https://docomo-cycle.jp/,docomo-cycle,yes,yes,2,2
563,35.695937,139.838017,H1-170,セブンイレブン江東亀戸7丁目南店,,H1-170.セブンイレブン江東亀戸7丁目南店,791,4,bicycle_rental,Docomo Bike Share,ドコモ・バイクシェア,Q55533296,https://docomo-cycle.jp/,docomo-cycle,yes,yes,2,2
564,35.451329,139.525532,A-001,相鉄ライフ南まきが原,,A-001.相鉄ライフ南まきが原,793,6,bicycle_rental,Docomo Bike Share,ドコモ・バイクシェア,Q55533296,https://docomo-cycle.jp/,docomo-cycle,yes,yes,1,1
565,35.428665,139.506861,I-001,TSUTAYA BOOKSTORE 弥生台,,I-001.TSUTAYA BOOKSTORE 弥生台,794,5,bicycle_rental,Docomo Bike Share,ドコモ・バイクシェア,Q55533296,https://docomo-cycle.jp/,docomo-cycle,yes,yes,1,1
566,35.430504,139.494598,I-002,相鉄ライフいずみ野,,I-002.相鉄ライフいずみ野,795,7,bicycle_rental,Docomo Bike Share,ドコモ・バイクシェア,Q55533296,https://docomo-cycle.jp/,docomo-cycle,yes,yes,1,1
567,35.705148,139.769314,E5-30,湯島3丁目15,,E5-30.湯島3丁目15,796,8,bicycle_rental,Docomo Bike Share,ドコモ・バイクシェア,Q55533296,https://docomo-cycle.jp/,docomo-cycle,yes,yes,2,2
568,35.405372,139.534069,T-001,戸塚駅東口駐輪場,,T-001.戸塚駅東口駐輪場,797,41,bicycle_rental,Docomo Bike Share,ドコモ・バイクシェア,Q55533296,https://docomo-cycle.jp/,docomo-cycle,yes,yes,1,1
569,35.430289,139.555123,T-002,東戸塚駅西口駐輪場,,T-002.東戸塚駅西口駐輪場,798,10,bicycle_rental,Docomo Bike Share,ドコモ・バイクシェア,Q55533296,https://docomo-cycle.jp/,docomo-cycle,yes,yes,1,1
570,35.432844,139.556342,T-003,東戸塚駅西口第二駐輪場,,T-003.東戸塚駅西口第二駐輪場,799,4,bicycle_rental,Docomo Bike Share,ドコモ・バイクシェア,Q55533296,https://docomo-cycle.jp/,docomo-cycle,yes,yes,1,1
571,35.410666,139.51208,I-003,中田駅第二駐輪場,,I-003.中田駅第二駐輪場,801,4,bicycle_rental,Docomo Bike Share,ドコモ・バイクシェア,Q55533296,https://docomo-cycle.jp/,docomo-cycle,yes,yes,1,1
572,35.44727,139.600669,H-001,保土ヶ谷駅東口駐輪場,,H-001.保土ヶ谷駅東口駐輪場,802,10,bicycle_rental,Docomo Bike Share,ドコモ・バイクシェア,Q55533296,https://docomo-cycle.jp/,docomo-cycle,yes,yes,1,1
573,35.459382,139.512033,A-002,希望ヶ丘駅南口第二駐輪場,,A-002.希望ヶ丘駅南口第二駐輪場,803,6,bicycle_rental,Docomo Bike Share,ドコモ・バイクシェア,Q55533296,https://docomo-cycle.jp/,docomo-cycle,yes,yes,1,1
574,35.467451,139.505999,A-003,三ツ境駅北口第三駐輪場,,A-003.三ツ境駅北口第三駐輪場,804,7,bicycle_rental,Docomo Bike Share,ドコモ・バイクシェア,Q55533296,https://docomo-cycle.jp/,docomo-cycle,yes,yes,1,1
575,35.425975,139.559624,T-004,東戸塚駅東口第三駐輪場,,T-004.東戸塚駅東口第三駐輪場,805,10,bicycle_rental,Docomo Bike Share,ドコモ・バイクシェア,Q55533296,https://docomo-cycle.jp/,docomo-cycle,yes,yes,1,1
576,36.363883,138.234242,U-15,＋519worklodge,,U-15.＋519worklodge,806,1,bicycle_rental,Docomo Bike Share,ドコモ・バイクシェア,Q55533296,https://docomo-cycle.jp/,docomo-cycle,yes,yes,2,1
577,36.403216,138.247279,U-02,上田市観光会館（上田城跡公園前）,,U-02.上田市観光会館（上田城跡公園前）,807,6,bicycle_rental,Docomo Bike Share,ドコモ・バイクシェア,Q55533296,https://docomo-cycle.jp/,docomo-cycle,yes,yes,2,1
578,36.40465,138.25367,U-03,北国街道柳町前（中央3丁目交差点）,,U-03.北国街道柳町前（中央3丁目交差点）,808,5,bicycle_rental,Docomo Bike Share,ドコモ・バイクシェア,Q55533296,https://docomo-cycle.jp/,docomo-cycle,yes,yes,2,1
579,36.40013,138.25977,U-04,中央公民館,,U-04.中央公民館,809,5,bicycle_rental,Docomo Bike Share,ドコモ・バイクシェア,Q55533296,https://docomo-cycle.jp/,docomo-cycle,yes,yes,2,1
580,36.39827,138.2458,U-05,アリオ上田,,U-05.アリオ上田,810,5,bicycle_rental,Docomo Bike Share,ドコモ・バイクシェア,Q55533296,https://docomo-cycle.jp/,docomo-cycle,yes,yes,2,1
581,36.39241,138.25809,U-06,イオンスタイル上田,,U-06.イオンスタイル上田,811,3,bicycle_rental,Docomo Bike Share,ドコモ・バイクシェア,Q55533296,https://docomo-cycle.jp/,docomo-cycle,yes,yes,2,1
582,36.37891,138.27339,U-07,信濃国分寺駅,,U-07.信濃国分寺駅,812,3,bicycle_rental,Docomo Bike Share,ドコモ・バイクシェア,Q55533296,https://docomo-cycle.jp/,docomo-cycle,yes,yes,2,1
583,36.36297,138.21735,U-08,下之郷駅,,U-08.下之郷駅,813,3,bicycle_rental,Docomo Bike Share,ドコモ・バイクシェア,Q55533296,https://docomo-cycle.jp/,docomo-cycle,yes,yes,2,1
584,36.36098,138.19868,U-09,塩田町駅,,U-09.塩田町駅,814,3,bicycle_rental,Docomo Bike Share,ドコモ・バイクシェア,Q55533296,https://docomo-cycle.jp/,docomo-cycle,yes,yes,2,1
585,36.35318,138.16195,U-10,別所温泉駅,,U-10.別所温泉駅,815,6,bicycle_rental,Docomo Bike Share,ドコモ・バイクシェア,Q55533296,https://docomo-cycle.jp/,docomo-cycle,yes,yes,2,1
586,36.343314,138.199332,U-11,山王山公園,,U-11.山王山公園,816,2,bicycle_rental,Docomo Bike Share,ドコモ・バイクシェア,Q55533296,https://docomo-cycle.jp/,docomo-cycle,yes,yes,2,1
587,36.478469,138.145079,C-01,千曲市総合観光会館,,C-01.千曲市総合観光会館,817,6,bicycle_rental,Docomo Bike Share,ドコモ・バイクシェア,Q55533296,https://docomo-cycle.jp/,docomo-cycle,yes,yes,2,1
588,36.49249,138.15289,C-02,戸倉駅駐輪場,,C-02.戸倉駅駐輪場,818,5,bicycle_rental,Docomo Bike Share,ドコモ・バイクシェア,Q55533296,https://docomo-cycle.jp/,docomo-cycle,yes,yes,2,1
589,36.508889,138.141667,C-03,千曲駅,,C-03.千曲駅,819,4,bicycle_rental,Docomo Bike Share,ドコモ・バイクシェア,Q55533296,https://docomo-cycle.jp/,docomo-cycle,yes,yes,2,1
590,36.532941,138.127805,C-05,屋代駅駐輪場,,C-05.屋代駅駐輪場,820,5,bicycle_rental,Docomo Bike Share,ドコモ・バイクシェア,Q55533296,https://docomo-cycle.jp/,docomo-cycle,yes,yes,2,1
591,36.50921,138.134043,C-04,綿半スーパーセンター千曲店,,C-04.綿半スーパーセンター千曲店,821,3,bicycle_rental,Docomo Bike Share,ドコモ・バイクシェア,Q55533296,https://docomo-cycle.jp/,docomo-cycle,yes,yes,2,1
592,36.534604,138.137532,C-06,千曲市森将軍塚古墳館,,C-06.千曲市森将軍塚古墳館,822,4,bicycle_rental,Docomo Bike Share,ドコモ・バイクシェア,Q55533296,https://docomo-cycle.jp/,docomo-cycle,yes,yes,2,1
593,36.530747,138.114479,C-08,千曲市役所,,C-08.千曲市役所,823,5,bicycle_rental,Docomo Bike Share,ドコモ・バイクシェア,Q55533296,https://docomo-cycle.jp/,docomo-cycle,yes,yes,2,1
594,36.536585,138.10302,C-09,千曲市ふる里漫画館,,C-09.千曲市ふる里漫画館,824,3,bicycle_rental,Docomo Bike Share,ドコモ・バイクシェア,Q55533296,https://docomo-cycle.jp/,docomo-cycle,yes,yes,2,1
595,36.519019,138.102464,C-10,千曲市武水別神社神官　松田邸,,C-10.千曲市武水別神社神官　松田邸,825,3,bicycle_rental,Docomo Bike Share,ドコモ・バイクシェア,Q55533296,https://docomo-cycle.jp/,docomo-cycle,yes,yes,2,1
